{"version": 0.6, "generator": "Overpass API 0.7.62.11 87bfad18", "osm3s": {"timestamp_osm_base": "2026-05-27T03:20:54Z", "copyright": "The data included in this document is from www.openstreetmap.org. The data is made available under ODbL."}, "elements": [{"type": "node", "id": 368665859, "lat": 37.535948, "lon": 127.000889, "tags": {"name": "\uace0\ud5a5\ub9c8\ud2b8", "name:en": "Gohyang Mart", "name:ko": "\uace0\ud5a5\ub9c8\ud2b8", "name:ko-Latn": "Gohyangmateu", "shop": "supermarket"}}, {"type": "node", "id": 368956432, "lat": 37.5338255, "lon": 126.99289, "tags": {"amenity": "restaurant", "name": "\ud314\ud314\ud69f\uc9d1", "name:en": "Palpal Fish Restaurant", "name:ko": "\ud314\ud314\ud69f\uc9d1", "name:ko-Latn": "Palpalhoetjip"}}, {"type": "node", "id": 1686413530, "lat": 37.534335, "lon": 126.9942184, "tags": {"amenity": "fast_food", "brand": "Quiznos", "brand:wikidata": "Q1936229", "brand:wikipedia": "en:Quiznos", "cuisine": "sandwich", "name": "Quiznos", "source": "Personal Knowledge", "takeaway": "yes", "website": "http://www.quiznos.com/International_Website/international-new.html"}}, {"type": "node", "id": 1726324029, "lat": 37.5346186, "lon": 126.9901929, "tags": {"addr:city": "\uc11c\uc6b8\ud2b9\ubcc4\uc2dc", "addr:district": "\uc6a9\uc0b0\uad6c", "addr:housenumber": "1", "addr:postcode": "04351", "addr:street": "\uc774\ud0dc\uc6d0\ub85c15\uae38", "addr:subdistrict": "\uc774\ud0dc\uc6d0\ub3d9", "amenity": "restaurant", "contact:phone": "+82 2 797 8226", "contact:website": "http://www.vatoskorea.com/", "cuisine": "mexican", "description": "\ub274\uc695\ud0c0\uc784\uc988, CNN, \uc6d4\ub4dc\uc2a4\ud2b8\ub9ac\ud2b8\uc800\ub110\uc5d0 \ucd5c\uace0\uc758 \ub808\uc2a4\ud1a0\ub791 \uc18c\uac1c\ub418\uace0 \uc788\uc2b5\ub2c8\ub2e4 \uc11c\uc6b8 \ubc29\ubb38\uc2dc \uaf2d \ub4e4\ub7ec\uc57c\ud558\ub294 \ub808\uc2a4\ud1a0\ub791\uc785\ub2c8\ub2e4. \ub2e8\uc21c\ud55c \ud4e8\uc804\uc774 \uc544\ub2c8\ub77c \uc790\uc5f0\uc2a4\ub7fd\uac8c \uc811\ud574\uc628 \ucf54\ub9ac\uc548 \uba55\uc2dc\uce78 \uc11c\uc6b8\uc758 \ub3c5\ucc3d\uc801\uc778 \uc74c\uc2dd\uc785\ub2c8\ub2e4.", "name": "(\uc8fc)\uc5b4\ubc88\uadf8\ub8f9 \ubc14\ud1a0\uc2a4 \uc774\ud0dc\uc6d0\uc810", "name:en": "Vatos Urban Tacos", "opening_hours": "Tu-Th 11:30-14:00,17:00-22:00; Fr 11:30-14:00,17:00-23:00; Sa 11:30-23:00; Su 11:30-22:00", "phone": "+82 2 797 8226", "source": "\uacf5\uacf5\ub370\uc774\ud130\ud3ec\ud138"}}, {"type": "node", "id": 1741128340, "lat": 37.5339143, "lon": 126.9919705, "tags": {"brand": "CU", "brand:wikidata": "Q12580836", "brand:wikipedia": "ko:CU (\ud3b8\uc758\uc810)", "name": "CU", "operator": "BGF\ub9ac\ud14c\uc77c", "operator:en": "BGF Retail", "payment:american_express": "yes", "payment:coins": "yes", "payment:credit_cards": "yes", "payment:debit_cards": "yes", "payment:diners_club": "yes", "payment:discover_card": "yes", "payment:jcb": "yes", "payment:mastercard": "yes", "payment:notes": "yes", "payment:unionpay": "yes", "payment:visa": "yes", "shop": "convenience", "smoking": "no", "website": "https://cu.bgfretail.com/index.do"}}, {"type": "node", "id": 1741134953, "lat": 37.534794, "lon": 126.9962668, "tags": {"amenity": "restaurant", "indoor_seating": "yes", "name": "Between Dining & Tapas Lounge", "outdoor_seating": "no"}}, {"type": "node", "id": 1741183404, "lat": 37.5344112, "lon": 126.9955695, "tags": {"amenity": "fast_food", "name": "Jesters"}}, {"type": "node", "id": 1741186012, "lat": 37.5342537, "lon": 126.992906, "tags": {"brand": "Nike", "brand:wikidata": "Q483915", "brand:wikipedia": "en:Nike, Inc.", "name": "Nike", "shop": "clothes"}}, {"type": "node", "id": 1741191666, "lat": 37.5341367, "lon": 126.9910177, "tags": {"brand": "Converse", "brand:wikidata": "Q319515", "brand:wikipedia": "en:Converse (shoe company)", "name": "Converse", "shop": "shoes"}}, {"type": "node", "id": 1741201896, "lat": 37.5344281, "lon": 126.9900469, "tags": {"alt_name": "North Face", "brand": "The North Face", "brand:wikidata": "Q152784", "brand:wikipedia": "en:The North Face", "name": "The North Face", "shop": "clothes"}}, {"type": "node", "id": 1741202154, "lat": 37.5347291, "lon": 126.9901947, "tags": {"name": "HomeBase Supermarket", "opening_hours": "09:00-23:00", "shop": "supermarket"}}, {"type": "node", "id": 1741202651, "lat": 37.5344026, "lon": 126.9905806, "tags": {"brand": "New Balance", "brand:wikidata": "Q742988", "brand:wikipedia": "en:New Balance", "name": "\ub274\ubc1c\ub780\uc2a4", "name:en": "New Balance", "name:ko": "\ub274\ubc1c\ub780\uc2a4", "shop": "shoes"}}, {"type": "node", "id": 1741203815, "lat": 37.5344197, "lon": 126.9907951, "tags": {"brand": "Crocs", "brand:wikidata": "Q926699", "brand:wikipedia": "en:Crocs", "name": "\ud06c\ub85d\uc2a4", "name:en": "Crocs", "name:ko": "\ud06c\ub85d\uc2a4", "shop": "shoes"}}, {"type": "node", "id": 1741209000, "lat": 37.5344495, "lon": 126.9914561, "tags": {"brand": "Adidas", "brand:wikidata": "Q3895", "brand:wikipedia": "en:Adidas", "name": "Adidas", "shop": "sports"}}, {"type": "node", "id": 1741210571, "lat": 37.5344707, "lon": 126.9915676, "tags": {"brand": "Nike", "brand:wikidata": "Q483915", "brand:wikipedia": "en:Nike, Inc.", "name": "Nike", "shop": "clothes"}}, {"type": "node", "id": 1742304566, "lat": 37.533487, "lon": 126.9955346, "tags": {"name": "Foreign Food Market", "shop": "supermarket"}}, {"type": "node", "id": 1742306055, "lat": 37.5339134, "lon": 126.9955655, "tags": {"amenity": "restaurant", "cuisine": "indian", "name": "Foreign Restaurant"}}, {"type": "node", "id": 1742432188, "lat": 37.5350369, "lon": 126.9914998, "tags": {"amenity": "restaurant", "cuisine": "international", "name": "Berlin"}}, {"type": "node", "id": 2031554165, "lat": 37.5340957, "lon": 126.9938266, "tags": {"amenity": "restaurant", "name": "Gecko's"}}, {"type": "node", "id": 2031554166, "lat": 37.5341416, "lon": 126.9941698, "tags": {"amenity": "fast_food", "brand": "Taco Bell", "brand:wikidata": "Q752941", "brand:wikipedia": "en:Taco Bell", "cuisine": "tex-mex", "name": "Taco Bell", "name:ja": "\u30bf\u30b3\u30d9\u30eb", "takeaway": "yes"}}, {"type": "node", "id": 2031554167, "lat": 37.5339831, "lon": 126.9934291}, {"type": "node", "id": 2031554168, "lat": 37.5339843, "lon": 126.993581}, {"type": "node", "id": 2031554171, "lat": 37.5341033, "lon": 126.9934276}, {"type": "node", "id": 2031554172, "lat": 37.5341046, "lon": 126.9935794}, {"type": "node", "id": 2458994571, "lat": 37.5333647, "lon": 126.9914603, "tags": {"amenity": "restaurant", "diet:vegan": "only", "name": "Yona's Kitchen"}}, {"type": "node", "id": 3055000833, "lat": 37.5349802, "lon": 126.9955669, "tags": {"addr:city": "\uc11c\uc6b8\ud2b9\ubcc4\uc2dc", "addr:district": "\uc6a9\uc0b0\uad6c", "addr:housenumber": "6", "addr:postcode": "04349", "addr:street": "\uc774\ud0dc\uc6d0\ub85c27\uae38", "addr:subdistrict": "\uc774\ud0dc\uc6d0\ub3d9", "amenity": "restaurant", "cuisine": "italian", "description": "\uc624\ub9ac\uc9c0\ub110 \uc774\ud0c8\ub9ac\uc548 \ud478\ub4dc", "level": "2", "name": "\uae4c\uc0ac\uc548\ud1a0\ub2c8\uc624", "phone": "+82 2 794 8803", "source": "\uacf5\uacf5\ub370\uc774\ud130\ud3ec\ud138"}}, {"type": "node", "id": 3152385404, "lat": 37.5347264, "lon": 126.9875569, "tags": {"amenity": "restaurant", "name": "Chadol House"}}, {"type": "node", "id": 3152385405, "lat": 37.5337652, "lon": 126.9931819, "tags": {"amenity": "ice_cream", "name": "Zucca's Artisan Gelato"}}, {"type": "node", "id": 3178290160, "lat": 37.5343988, "lon": 126.9952088, "tags": {"amenity": "restaurant", "name": "Kervan Turkish Restaurant", "type": "turkish"}}, {"type": "node", "id": 3588172231, "lat": 37.5333648, "lon": 126.9971512}, {"type": "node", "id": 3588172232, "lat": 37.5333935, "lon": 126.997237}, {"type": "node", "id": 3588172233, "lat": 37.5332988, "lon": 126.9973336}, {"type": "node", "id": 3588172234, "lat": 37.533285, "lon": 126.9973228}, {"type": "node", "id": 3588172235, "lat": 37.5332544, "lon": 126.9973501}, {"type": "node", "id": 3588172236, "lat": 37.5331707, "lon": 126.9977228}, {"type": "node", "id": 3588172237, "lat": 37.5331722, "lon": 126.9978131}, {"type": "node", "id": 3588172238, "lat": 37.5334026, "lon": 126.9979774}, {"type": "node", "id": 3588172239, "lat": 37.5333735, "lon": 126.9980649}, {"type": "node", "id": 3588172240, "lat": 37.5330967, "lon": 126.9978692}, {"type": "node", "id": 3588172241, "lat": 37.5330678, "lon": 126.9977477}, {"type": "node", "id": 3588172242, "lat": 37.5331517, "lon": 126.9973604}, {"type": "node", "id": 3588172243, "lat": 37.5331756, "lon": 126.9973674}, {"type": "node", "id": 3588172244, "lat": 37.5332195, "lon": 126.9971665}, {"type": "node", "id": 3588172245, "lat": 37.5333017, "lon": 126.9971972}, {"type": "node", "id": 3588207744, "lat": 37.5332562, "lon": 126.9979309, "tags": {"name": "\uc300\ub78c\ubca0\uc774\ucee4\ub9ac", "name:ja": "\u30b5\u30e9\u30fc\u30e0\u30d9\u30fc\u30ab\u30ea\u30fc", "shop": "bakery"}}, {"type": "node", "id": 3624586245, "lat": 37.5345787, "lon": 126.9931771}, {"type": "node", "id": 3624586246, "lat": 37.5345871, "lon": 126.9933504}, {"type": "node", "id": 3624586247, "lat": 37.5347249, "lon": 126.9933404}, {"type": "node", "id": 3624586248, "lat": 37.5347229, "lon": 126.9932978}, {"type": "node", "id": 3624586249, "lat": 37.5346679, "lon": 126.9933031}, {"type": "node", "id": 3624586250, "lat": 37.5346582, "lon": 126.9931678}, {"type": "node", "id": 3624586251, "lat": 37.534569, "lon": 126.9930112}, {"type": "node", "id": 3624586252, "lat": 37.534576, "lon": 126.9931595}, {"type": "node", "id": 3624586253, "lat": 37.5347096, "lon": 126.9931494}, {"type": "node", "id": 3624586254, "lat": 37.5347081, "lon": 126.9931164}, {"type": "node", "id": 3624586255, "lat": 37.5346702, "lon": 126.9931192}, {"type": "node", "id": 3624586256, "lat": 37.5346648, "lon": 126.993004}, {"type": "node", "id": 3624586282, "lat": 37.534604, "lon": 126.994112}, {"type": "node", "id": 3624586283, "lat": 37.534618, "lon": 126.9943664}, {"type": "node", "id": 3624586284, "lat": 37.5346955, "lon": 126.9943596}, {"type": "node", "id": 3624586285, "lat": 37.534721, "lon": 126.9943355}, {"type": "node", "id": 3624586286, "lat": 37.5347174, "lon": 126.9942702}, {"type": "node", "id": 3624586287, "lat": 37.5346785, "lon": 126.9942736}, {"type": "node", "id": 3624586288, "lat": 37.5346809, "lon": 126.9943166}, {"type": "node", "id": 3624586289, "lat": 37.5346515, "lon": 126.9943191}, {"type": "node", "id": 3624586290, "lat": 37.5346467, "lon": 126.994232}, {"type": "node", "id": 3624586291, "lat": 37.5347019, "lon": 126.9942272}, {"type": "node", "id": 3624586292, "lat": 37.5346951, "lon": 126.994104}, {"type": "node", "id": 3624609222, "lat": 37.5349185, "lon": 126.9949542}, {"type": "node", "id": 3624609223, "lat": 37.5350175, "lon": 126.9949418}, {"type": "node", "id": 3624609224, "lat": 37.53503, "lon": 126.9951}, {"type": "node", "id": 3624609225, "lat": 37.534931, "lon": 126.9951124}, {"type": "node", "id": 3624631079, "lat": 37.5348612, "lon": 126.9947094}, {"type": "node", "id": 3624631080, "lat": 37.5348722, "lon": 126.9949034}, {"type": "node", "id": 3624631081, "lat": 37.5348343, "lon": 126.9949068}, {"type": "node", "id": 3624631082, "lat": 37.5347918, "lon": 126.9948639}, {"type": "node", "id": 3624631083, "lat": 37.5347833, "lon": 126.9947165}, {"type": "node", "id": 3624647645, "lat": 37.5345365, "lon": 126.9926296}, {"type": "node", "id": 3624647646, "lat": 37.5346429, "lon": 126.9926188}, {"type": "node", "id": 3624647647, "lat": 37.534636, "lon": 126.9925109}, {"type": "node", "id": 3624647648, "lat": 37.5345296, "lon": 126.9925217}, {"type": "node", "id": 3624647649, "lat": 37.5346978, "lon": 126.992594}, {"type": "node", "id": 3624647650, "lat": 37.5347875, "lon": 126.9925803}, {"type": "node", "id": 3624647651, "lat": 37.5347784, "lon": 126.9924847}, {"type": "node", "id": 3624647652, "lat": 37.5346886, "lon": 126.9924984}, {"type": "node", "id": 3816618374, "lat": 37.5332989, "lon": 126.9910522, "tags": {"addr:city": "\uc11c\uc6b8\ud2b9\ubcc4\uc2dc", "addr:district": "\uc6a9\uc0b0\uad6c", "addr:housenumber": "29", "addr:postcode": "04391", "addr:street": "\uc774\ud0dc\uc6d0\ub85c14\uae38", "addr:subdistrict": "\uc774\ud0dc\uc6d0\ub3d9", "amenity": "restaurant", "delivery": "no", "name": "\ud55c\ud0d5", "smoking": "no"}}, {"type": "node", "id": 3820091030, "lat": 37.5337718, "lon": 126.99156, "tags": {"addr:city": "\uc11c\uc6b8\ud2b9\ubcc4\uc2dc", "addr:district": "\uc6a9\uc0b0\uad6c", "addr:housenumber": "43", "addr:postcode": "04391", "addr:street": "\ubcf4\uad11\ub85c59\uae38", "addr:subdistrict": "\uc774\ud0dc\uc6d0\ub3d9", "amenity": "restaurant", "name": "\uace0\uae43\uc9d1"}}, {"type": "node", "id": 3820109765, "lat": 37.5348561, "lon": 126.9955398}, {"type": "node", "id": 3820109766, "lat": 37.5348616, "lon": 126.9957816}, {"type": "node", "id": 3820109767, "lat": 37.5347577, "lon": 126.9957853}, {"type": "node", "id": 3820109768, "lat": 37.5347535, "lon": 126.9955999}, {"type": "node", "id": 3820109769, "lat": 37.5348171, "lon": 126.9958017}, {"type": "node", "id": 3820109770, "lat": 37.534821, "lon": 126.9960074}, {"type": "node", "id": 3820109771, "lat": 37.5347355, "lon": 126.9960099}, {"type": "node", "id": 3820109772, "lat": 37.5347316, "lon": 126.9958042}, {"type": "node", "id": 3820109773, "lat": 37.5351333, "lon": 126.9934076}, {"type": "node", "id": 3820109774, "lat": 37.5350013, "lon": 126.9934204}, {"type": "node", "id": 3820109775, "lat": 37.5350494, "lon": 126.9942084}, {"type": "node", "id": 3820109776, "lat": 37.5351814, "lon": 126.9941956}, {"type": "node", "id": 3820109777, "lat": 37.5351979, "lon": 126.9942176}, {"type": "node", "id": 3820109778, "lat": 37.5350418, "lon": 126.9942348}, {"type": "node", "id": 3820109779, "lat": 37.5350519, "lon": 126.9943789}, {"type": "node", "id": 3820109780, "lat": 37.5352079, "lon": 126.9943616}, {"type": "node", "id": 3820109781, "lat": 37.535265, "lon": 126.993126}, {"type": "node", "id": 3820109782, "lat": 37.535152, "lon": 126.9931493}, {"type": "node", "id": 3820109783, "lat": 37.5351797, "lon": 126.993362}, {"type": "node", "id": 3820109784, "lat": 37.5352926, "lon": 126.9933387}, {"type": "node", "id": 4170758736, "lat": 37.5349347, "lon": 126.9920648, "tags": {"addr:city": "\uc11c\uc6b8\ud2b9\ubcc4\uc2dc", "addr:district": "\uc6a9\uc0b0\uad6c", "addr:housenumber": "54-3", "addr:postcode": "04350", "addr:street": "\uc774\ud0dc\uc6d0\ub85c27\uac00\uae38", "addr:subdistrict": "\uc774\ud0dc\uc6d0\ub3d9", "amenity": "cafe", "branch": "\uc774\ud0dc\uc6d0", "branch:en": "Itaewon", "name": "Ikovox", "phone": "+82 2 790 5578", "website": "www.ikovoxcoffee.com"}}, {"type": "node", "id": 4208499992, "lat": 37.533949, "lon": 126.9921695, "tags": {"name": "Coco lounge", "shop": "beauty"}}, {"type": "node", "id": 4256920284, "lat": 37.5352401, "lon": 126.9915552, "tags": {"addr:city": "\uc11c\uc6b8\ud2b9\ubcc4\uc2dc", "addr:district": "\uc6a9\uc0b0\uad6c", "addr:housenumber": "22", "addr:postcode": "04351", "addr:street": "\uc774\ud0dc\uc6d0\ub85c17\uae38", "addr:subdistrict": "\uc774\ud0dc\uc6d0\ub3d9", "amenity": "bar", "level": "2", "name": "NERD Bar", "name:ko": "\ub108\ub4dc\ubc14", "phone": "+82 2-798-2221", "website": "https://www.instagram.com/NERD_ONEARTH"}}, {"type": "node", "id": 4290864589, "lat": 37.5347455, "lon": 126.9920363, "tags": {"amenity": "restaurant", "name": "\ub9c8\uc774\uce58\uce58\uc2a4"}}, {"type": "node", "id": 4349494006, "lat": 37.5360579, "lon": 126.9992905, "tags": {"amenity": "restaurant", "name": "\u4e16\u5b97\u82b1\u5712"}}, {"type": "node", "id": 4416275597, "lat": 37.534448, "lon": 126.99619, "tags": {"name": "\ub77c\uc778\ud504\ub80c\uc988 \uc2a4\ud1a0\uc5b4 \uc774\ud0dc\uc6d0", "name:en": "Line Friends Store Itaewon", "name:ja": "LINE\u30d5\u30ec\u30f3\u30ba\u30b9\u30c8\u30a2\u68a8\u6cf0\u9662", "name:ko": "\ub77c\uc778\ud504\ub80c\uc988 \uc2a4\ud1a0\uc5b4 \uc774\ud0dc\uc6d0", "shop": "department_store"}}, {"type": "node", "id": 4416275598, "lat": 37.5344817, "lon": 126.9907224, "tags": {"addr:city": "\uc11c\uc6b8\ud2b9\ubcc4\uc2dc", "addr:district": "\uc6a9\uc0b0\uad6c", "addr:housenumber": "151", "addr:postcode": "04351", "addr:street": "\uc774\ud0dc\uc6d0\ub85c", "addr:subdistrict": "\uc774\ud0dc\uc6d0\ub3d9", "amenity": "restaurant", "cuisine": "thai", "name": "\uc655\ud0c0\uc774", "name:en": "Wang Thai", "name:ko": "\uc655\ud0c0\uc774", "phone": "+82 2 749 2746~7", "source": "\uacf5\uacf5\ub370\uc774\ud130\ud3ec\ud138"}}, {"type": "node", "id": 4416300895, "lat": 37.5334857, "lon": 126.9908013, "tags": {"amenity": "restaurant", "name": "Braai Republic"}}, {"type": "node", "id": 4422066472, "lat": 37.5343851, "lon": 126.9970461, "tags": {"addr:city": "\uc11c\uc6b8\ud2b9\ubcc4\uc2dc", "addr:district": "\uc6a9\uc0b0\uad6c", "addr:housenumber": "736-19", "addr:street": "Hannam-dong, Yongsan-gu", "amenity": "bar", "name": "The Link", "website": "https://instagram.com/thelinkseoul"}}, {"type": "node", "id": 4422083118, "lat": 37.5361586, "lon": 126.9995085, "tags": {"brand": "GS25", "brand:wikidata": "Q624041", "brand:wikipedia": "ko:GS25", "name": "GS25", "shop": "convenience"}}, {"type": "node", "id": 4422084822, "lat": 37.53367, "lon": 126.9955688, "tags": {"addr:city": "\uc11c\uc6b8\ud2b9\ubcc4\uc2dc", "addr:district": "\uc6a9\uc0b0\uad6c", "addr:housenumber": "39", "addr:street": "Usadan-ro", "amenity": "restaurant", "cuisine": "indian", "diet:vegetarian": "yes", "name": "Taj Palace"}}, {"type": "node", "id": 4422084823, "lat": 37.535031, "lon": 126.9978198, "tags": {"amenity": "bank", "name": "Hana Bank"}}, {"type": "node", "id": 4422084824, "lat": 37.5358158, "lon": 126.9991729, "tags": {"shop": "hairdresser"}}, {"type": "node", "id": 4422084825, "lat": 37.5363907, "lon": 126.9997814, "tags": {"amenity": "bank", "brand": "\uc6b0\ub9ac\uc740\ud589", "brand:en": "Woori Bank", "brand:ko": "\uc6b0\ub9ac\uc740\ud589", "brand:wikidata": "Q494369", "brand:wikipedia": "en:Woori Bank", "name": "\uc6b0\ub9ac\uc740\ud589", "name:en": "Woori Bank", "name:ja": "\u30a6\u30ea\u9280\u884c", "name:ko": "\uc6b0\ub9ac\uc740\ud589", "opening_hours": "Mo-Su 07:00-23:30", "wheelchair": "yes"}}, {"type": "node", "id": 4457735897, "lat": 37.5338675, "lon": 126.9955645, "tags": {"name:en": "Korea shop", "shop": "gift"}}, {"type": "node", "id": 4459644794, "lat": 37.5335685, "lon": 126.991398, "tags": {"amenity": "restaurant", "name": "Plant", "name:ko": "Plant"}}, {"type": "node", "id": 4571207290, "lat": 37.5344824, "lon": 126.9910284, "tags": {"amenity": "cafe", "level": "1", "name:en": "Coffeesmith", "outdoor_seating": "yes"}}, {"type": "node", "id": 4571242790, "lat": 37.5343797, "lon": 126.989667, "tags": {"amenity": "restaurant", "name": "Canucks Canadian Restaurant", "name:ko": "Canucks Canadian Restaurant"}}, {"type": "node", "id": 4571254389, "lat": 37.5345971, "lon": 126.9909894, "tags": {"addr:city": "\uc11c\uc6b8\ud2b9\ubcc4\uc2dc", "addr:district": "\uc6a9\uc0b0\uad6c", "addr:housenumber": "153", "addr:postcode": "04351", "addr:street": "\uc774\ud0dc\uc6d0\ub85c", "addr:subdistrict": "\uc774\ud0dc\uc6d0\ub3d9", "amenity": "restaurant", "cuisine": "indian", "name": "\uc544\uadf8\ub77c", "name:en": "Agra Indian Restaurant", "name:ko": "\uc544\uadf8\ub77c", "phone": "+82 70 8230 4230", "source": "\uacf5\uacf5\ub370\uc774\ud130\ud3ec\ud138"}}, {"type": "node", "id": 4571423090, "lat": 37.5346003, "lon": 126.9910497, "tags": {"addr:city": "\uc11c\uc6b8\ud2b9\ubcc4\uc2dc", "addr:district": "\uc6a9\uc0b0\uad6c", "addr:housenumber": "153", "addr:postcode": "04351", "addr:street": "\uc774\ud0dc\uc6d0\ub85c", "addr:subdistrict": "\uc774\ud0dc\uc6d0\ub3d9", "amenity": "restaurant", "cuisine": "american", "name": "(\uc8fc)\uc624\ub9ac\uc9c0\ub110\ud32c\ucf00\uc774\ud06c\ud558\uc6b0\uc2a4(\uc774\ud0dc\uc6d0\uc810)", "name:en": "The Original Pancake House", "phone": "+82 2 795 7481", "source": "\uacf5\uacf5\ub370\uc774\ud130\ud3ec\ud138"}}, {"type": "node", "id": 4571464690, "lat": 37.5343724, "lon": 126.9897625, "tags": {"amenity": "pub", "name:en": "Smashing Bowl Music Pub & Lanes"}}, {"type": "node", "id": 4588754790, "lat": 37.5333758, "lon": 126.992258, "tags": {"amenity": "restaurant", "name": "LAMB SKEWER", "name:ko": "LAMB SKEWER"}}, {"type": "node", "id": 4652536758, "lat": 37.5348576, "lon": 126.9922013, "tags": {"amenity": "pub", "check_date": "2024-01-17", "name": "Craft Han's"}}, {"type": "node", "id": 4652559270, "lat": 37.5346296, "lon": 126.9935526, "tags": {"alt_name": "Kentucky Fried Chicken", "amenity": "fast_food", "brand": "KFC", "brand:wikidata": "Q524757", "cuisine": "chicken", "name": "KFC", "takeaway": "yes"}}, {"type": "node", "id": 4652559271, "lat": 37.5346439, "lon": 126.9937628, "tags": {"alt_name:ko": "\ud30c\ub9ac\ubc14\uac8c\ud2b8", "brand": "\ud30c\ub9ac\ubc14\uac8c\ub728", "brand:en": "Paris Baguette", "brand:ko": "\ud30c\ub9ac\ubc14\uac8c\ub728", "brand:wikidata": "Q62605260", "name": "\ud30c\ub9ac\ubc14\uac8c\ub728", "name:en": "Paris Baguette", "name:ko": "\ud30c\ub9ac\ubc14\uac8c\ub728", "shop": "bakery"}}, {"type": "node", "id": 4726124094, "lat": 37.5339376, "lon": 126.9937865, "tags": {"amenity": "bar", "name:en": "Little Ale"}}, {"type": "node", "id": 4726136390, "lat": 37.5339493, "lon": 126.9937138, "tags": {"amenity": "bar", "name:en": "The Four Seasons Pub"}}, {"type": "node", "id": 4726141091, "lat": 37.5344988, "lon": 126.98837, "tags": {"addr:city": "\uc11c\uc6b8\ud2b9\ubcc4\uc2dc", "addr:district": "\uc6a9\uc0b0\uad6c", "addr:housenumber": "47", "addr:postcode": "04351", "addr:street": "\ub179\uc0ac\ud3c9\ub300\ub85c40\uae38", "addr:subdistrict": "\uc774\ud0dc\uc6d0\ub3d9", "amenity": "restaurant", "name": "Manimal Sokehouse", "name:en": "Manimal Smokehouse", "opening_hours": "Tu-Su 12:00-15:30,17:30-22:00"}}, {"type": "node", "id": 4726143489, "lat": 37.5342989, "lon": 126.9935712, "tags": {"amenity": "bar", "name:en": "The Springs Tap House"}}, {"type": "node", "id": 4757180325, "lat": 37.5338702, "lon": 126.9937603, "tags": {"amenity": "fast_food", "cuisine": "korean", "name:en": "Jonny Dumpling"}}, {"type": "node", "id": 4918959521, "lat": 37.5358975, "lon": 127.0002108, "tags": {"name:fr": "warped", "shop": "clothes"}}, {"type": "node", "id": 4928829122, "lat": 37.534444, "lon": 126.9913198, "tags": {"name": "New Era", "shop": "clothes"}}, {"type": "node", "id": 4952005424, "lat": 37.5331798, "lon": 126.9943183, "tags": {"addr:city": "\uc11c\uc6b8\ud2b9\ubcc4\uc2dc", "addr:district": "\uc6a9\uc0b0\uad6c", "addr:housenumber": "117", "addr:postcode": "04391", "addr:street": "\ubcf4\uad11\ub85c", "addr:subdistrict": "\uc774\ud0dc\uc6d0\ub3d9", "amenity": "restaurant", "diet:vegan": "yes", "internet_access": "wlan", "level": "2", "name": "Plant", "name:en": "Plant", "name:ko": "\ud50c\ub79c\ud2b8"}}, {"type": "node", "id": 5041639296, "lat": 37.535341, "lon": 126.9915967, "tags": {"addr:city": "\uc11c\uc6b8\ud2b9\ubcc4\uc2dc", "addr:district": "\uc6a9\uc0b0\uad6c", "addr:floor": "3", "addr:housenumber": "21", "addr:postcode": "04351", "addr:street": "\uc774\ud0dc\uc6d0\ub85c19\uae38", "addr:subdistrict": "\uc774\ud0dc\uc6d0\ub3d9", "amenity": "bar", "name": "ODD Bar", "name:ko": "\uc624\ub4dc\ubc14", "outdoor_seating": "yes", "phone": "+82 2-798-2220"}}, {"type": "node", "id": 5169200623, "lat": 37.5345258, "lon": 126.9922605, "tags": {"amenity": "restaurant", "name:en": "My Thai China"}}, {"type": "node", "id": 5215843840, "lat": 37.5344323, "lon": 126.988785, "tags": {"brand": "GS25", "brand:wikidata": "Q624041", "brand:wikipedia": "ko:GS25", "name": "GS25", "name:en": "GS25", "name:ko": "GS25", "operator": "GS\ub9ac\ud14c\uc77c", "operator:en": "GS Retail", "payment:american_express": "yes", "payment:coins": "yes", "payment:diners_club": "yes", "payment:discover_card": "yes", "payment:jcb": "yes", "payment:mastercard": "yes", "payment:notes": "yes", "payment:unionpay": "yes", "payment:visa": "yes", "shop": "convenience", "website": "http://gs25.gsretail.com/gscvs/ko/main"}}, {"type": "node", "id": 5340487421, "lat": 37.5351305, "lon": 126.9919432, "tags": {"amenity": "pub", "name": "mowmow", "name:ja": "\u30e2\u30a6\u30e2\u30a6"}}, {"type": "node", "id": 5415544921, "lat": 37.5348115, "lon": 126.9974746, "tags": {"name:en": "7 eleven", "shop": "convenience"}}, {"type": "node", "id": 5424976563, "lat": 37.5346876, "lon": 126.9945754, "tags": {"brand": "GS25", "brand:wikidata": "Q624041", "brand:wikipedia": "ko:GS25", "name": "GS25", "name:en": "GS25", "name:ko": "GS25", "operator": "GS\ub9ac\ud14c\uc77c", "operator:en": "GS Retail", "payment:american_express": "yes", "payment:coins": "yes", "payment:diners_club": "yes", "payment:discover_card": "yes", "payment:jcb": "yes", "payment:mastercard": "yes", "payment:notes": "yes", "payment:unionpay": "yes", "payment:visa": "yes", "shop": "convenience", "website": "http://gs25.gsretail.com/gscvs/ko/main"}}, {"type": "node", "id": 5424976564, "lat": 37.5348354, "lon": 126.9945523, "tags": {"amenity": "restaurant", "name": "\ub9c8\uc774\ud0c0\uc774", "name:en": "My Thai", "name:ko": "\ub9c8\uc774\ud0c0\uc774"}}, {"type": "node", "id": 5424976566, "lat": 37.5349625, "lon": 126.9948131, "tags": {"addr:city": "\uc11c\uc6b8\ud2b9\ubcc4\uc2dc", "addr:district": "\uc6a9\uc0b0\uad6c", "addr:housenumber": "9", "addr:postcode": "04350", "addr:street": "\uc774\ud0dc\uc6d0\ub85c27\uac00\uae38", "addr:subdistrict": "\uc774\ud0dc\uc6d0\ub3d9", "amenity": "restaurant", "cuisine": "american", "description": "The hamburger Grill", "name": "\uc2a4\ubaa8\ud0a4\uc0b4\ub8ec", "name:en": "SMOKEY SALOON", "name:ko": "\uc2a4\ubaa8\ud0a4\uc0b4\ub8ec", "phone": "+82 2 790 0479", "source": "\uacf5\uacf5\ub370\uc774\ud130\ud3ec\ud138"}}, {"type": "node", "id": 5424976568, "lat": 37.5350272, "lon": 126.9952255, "tags": {"amenity": "restaurant", "cuisine": "asian", "name": "Spice Table"}}, {"type": "node", "id": 5424976569, "lat": 37.5348439, "lon": 126.9951207, "tags": {"amenity": "restaurant", "name": "\uc559\ub4dc\ub728\uc640 \ube0c\ub77c\uc138\ub9ac", "name:en": "Un Deus Trois", "name:fr": "Un Deus Trois", "name:ko": "\uc559\ub4dc\ub728\uc640 \ube0c\ub77c\uc138\ub9ac"}}, {"type": "node", "id": 5424976570, "lat": 37.534756, "lon": 126.995341, "tags": {"amenity": "restaurant", "name": "24\ub7f0\ub358", "name:en": "24 London"}}, {"type": "node", "id": 5424976571, "lat": 37.5347658, "lon": 126.9959279, "tags": {"amenity": "cafe", "brand": "\uce74\ud398\ubca0\ub124", "brand:en": "Caffe Bene", "brand:wikidata": "Q5017149", "cuisine": "coffee_shop", "name": "\uce74\ud398\ubca0\ub124", "name:en": "Cafebene", "name:ja": "\u30ab\u30d5\u30a7\u30d9\u30cd", "name:ko": "\uce74\ud398\ubca0\ub124", "operator": "Caffe Bene", "payment:american_express": "yes", "payment:coins": "yes", "payment:diners_club": "yes", "payment:discover_card": "yes", "payment:jcb": "yes", "payment:mastercard": "yes", "payment:notes": "yes", "payment:unionpay": "yes", "payment:visa": "yes", "smoking": "no", "website": "http://www.caffebene.co.kr/"}}, {"type": "node", "id": 5432974222, "lat": 37.5339926, "lon": 126.9939294, "tags": {"name:en": "Core mart", "shop": "supermarket"}}, {"type": "node", "id": 5467131121, "lat": 37.5348482, "lon": 126.9923736, "tags": {"amenity": "restaurant", "name:en": "Restaurant Korean-Jap"}}, {"type": "node", "id": 5470271722, "lat": 37.5351088, "lon": 126.9944864, "tags": {"addr:city": "\uc11c\uc6b8\ud2b9\ubcc4\uc2dc", "addr:district": "\uc6a9\uc0b0\uad6c", "addr:housenumber": "12", "addr:postcode": "04350", "addr:street": "\uc774\ud0dc\uc6d0\ub85c27\uac00\uae38", "addr:subdistrict": "\uc774\ud0dc\uc6d0\ub3d9", "amenity": "bar", "name": "\uc62c\ub313\uc7ac\uc988(All that Jazz)", "name:en": "All that Jazz", "name:ko": "\uc62c\ub313\uc7ac\uc988", "website": "http://allthatjazz.kr"}}, {"type": "node", "id": 5544090035, "lat": 37.534285, "lon": 126.9955415, "tags": {"addr:city": "\uc11c\uc6b8\ud2b9\ubcc4\uc2dc", "addr:district": "\uc6a9\uc0b0\uad6c", "addr:housenumber": "47 7", "addr:street": "\uc6b0\uc0ac\ub2e8\ub85c", "amenity": "bar", "contact:instagram": "or_g_seoul", "name": "\uc62c\uc9c0", "name:de": "Or.G seoul Gay bar", "name:en": "Or.G seoul Gay bar", "name:ko": "Lua Rooftop Lounge", "opening_hours": "We-Th 21:00-00:00; Fr-Sa 20:00-04:00; Su 20:00-04:00", "website": "https://www.instagram.com/or_g_seoul/"}}, {"type": "node", "id": 5544094223, "lat": 37.5342083, "lon": 126.9938093, "tags": {"amenity": "cafe", "name": "White Veil", "name:ko": "White Veil"}}, {"type": "node", "id": 5563285921, "lat": 37.5380657, "lon": 127.0011144, "tags": {"addr:city": "\uc11c\uc6b8\ud2b9\ubcc4\uc2dc", "addr:district": "\uc6a9\uc0b0\uad6c", "addr:housenumber": "257", "addr:postcode": "04348", "addr:street": "\uc774\ud0dc\uc6d0\ub85c", "addr:subdistrict": "\ud55c\ub0a8\ub3d9", "name:en": "COS", "opening_hours": "Mo-Su 11:00-20:00", "shop": "clothes"}}, {"type": "node", "id": 5603128529, "lat": 37.535877, "lon": 126.99986, "tags": {"amenity": "restaurant", "name:ja": "\u9752\u6d77"}}, {"type": "node", "id": 5619687425, "lat": 37.5339603, "lon": 126.9957678, "tags": {"amenity": "restaurant", "name:en": "Yago Mandoo (local dumplings)"}}, {"type": "node", "id": 5619790322, "lat": 37.5343118, "lon": 126.9941274, "tags": {"amenity": "cafe", "brand": "\ud22c\uc378\ud50c\ub808\uc774\uc2a4", "brand:en": "A Twosome Place", "brand:ko": "\ud22c\uc378\ud50c\ub808\uc774\uc2a4", "brand:wikidata": "Q12621301", "cuisine": "coffee_shop", "name": "\ud22c\uc378\ud50c\ub808\uc774\uc2a4", "name:en": "A Twosome Place", "name:ko": "\ud22c\uc378\ud50c\ub808\uc774\uc2a4", "takeaway": "yes"}}, {"type": "node", "id": 5804106554, "lat": 37.534885, "lon": 126.9930167, "tags": {"amenity": "restaurant", "name:en": "My Thai China"}}, {"type": "node", "id": 5804393653, "lat": 37.5350571, "lon": 126.9930908, "tags": {"amenity": "bar", "name:en": "Lord Whiskey Bar"}}, {"type": "node", "id": 5840443786, "lat": 37.533987, "lon": 126.9941963, "tags": {"addr:city": "\uc11c\uc6b8\ud2b9\ubcc4\uc2dc", "addr:district": "\uc6a9\uc0b0\uad6c", "addr:housenumber": "125", "addr:postcode": "04391", "addr:street": "\ubcf4\uad11\ub85c", "addr:subdistrict": "\uc774\ud0dc\uc6d0\ub3d9", "amenity": "fast_food", "cuisine": "turkish", "email": "troyseoul@gmail.com", "internet_access": "wlan", "name": "\ud2b8\ub85c\uc774", "name:en": "Troy Kebab", "name:ja": "\u30c8\u30ed\u30a4", "opening_hours": "Mo-Fr 11:00-02:00; Sa-Su 00:00-24:00", "phone": "+82 2-792-2599"}}, {"type": "node", "id": 5850037086, "lat": 37.5346275, "lon": 126.9976197, "tags": {"amenity": "cafe", "name:en": "Extracts"}}, {"type": "node", "id": 5850205288, "lat": 37.536203, "lon": 127.000057, "tags": {"amenity": "cafe", "name:en": "Anthracite Coffee Roasters"}}, {"type": "node", "id": 5850205289, "lat": 37.5361793, "lon": 126.9999563, "tags": {"name:en": "D&department Seoul", "shop": "department_store"}}, {"type": "node", "id": 5850205290, "lat": 37.537167, "lon": 127.0010669, "tags": {"amenity": "cafe", "brand": "\uc2a4\ud0c0\ubc85\uc2a4", "brand:en": "Starbucks", "brand:ko": "\uc2a4\ud0c0\ubc85\uc2a4", "brand:wikidata": "Q37158", "brand:wikipedia": "ko:\uc2a4\ud0c0\ubc85\uc2a4", "cuisine": "coffee_shop", "name": "\uc2a4\ud0c0\ubc85\uc2a4", "name:de": "Starbucks", "name:en": "Starbucks", "name:ja": "\u30b9\u30bf\u30fc\u30d0\u30c3\u30af\u30b9", "name:ko": "\uc2a4\ud0c0\ubc85\uc2a4", "operator": "(\uc8fc)\uc2a4\ud0c0\ubc85\uc2a4\ucee4\ud53c \ucf54\ub9ac\uc544", "payment:american_express": "yes", "payment:coins": "yes", "payment:diners_club": "yes", "payment:discover_card": "yes", "payment:jcb": "yes", "payment:mastercard": "yes", "payment:notes": "yes", "payment:unionpay": "yes", "payment:visa": "yes", "smoking": "no", "takeaway": "yes", "website": "http://www.istarbucks.co.kr/index.do"}}, {"type": "node", "id": 5850205291, "lat": 37.5372662, "lon": 127.0004681, "tags": {"name:en": "Theory", "shop": "clothes"}}, {"type": "node", "id": 5850226285, "lat": 37.5365754, "lon": 127.0005356, "tags": {"brand": "Aesop", "brand:wikidata": "Q4688560", "name": "Aesop", "name:en": "Aesop", "shop": "cosmetics"}}, {"type": "node", "id": 5851535385, "lat": 37.536875, "lon": 127.0003781, "tags": {"amenity": "restaurant", "name:en": "Bun Cha Ra Boom"}}, {"type": "node", "id": 5852397185, "lat": 37.5331241, "lon": 126.9912589, "tags": {"amenity": "cafe", "name:en": "Kohnk"}}, {"type": "node", "id": 5852397186, "lat": 37.5347024, "lon": 126.9950799, "tags": {"name:en": "Ben\u2019s Cookies", "shop": "bakery"}}, {"type": "node", "id": 5852400585, "lat": 37.5358825, "lon": 126.9992879, "tags": {"indoor_seating": "yes", "name": "\uc058\ub760\ube75 \ud55c\ub0a8", "outdoor_seating": "yes", "shop": "bakery"}}, {"type": "node", "id": 5852408585, "lat": 37.5337229, "lon": 126.9928298, "tags": {"amenity": "cafe", "name:en": "Tantalize"}}, {"type": "node", "id": 5856017786, "lat": 37.5339458, "lon": 126.9922328, "tags": {"amenity": "restaurant", "cuisine": "american", "name:en": "New York Bagel Cafe"}}, {"type": "node", "id": 5914038539, "lat": 37.5339819, "lon": 126.9909394, "tags": {"addr:city": "\uc11c\uc6b8\ud2b9\ubcc4\uc2dc", "addr:district": "\uc6a9\uc0b0\uad6c", "addr:floor": "1", "addr:housenumber": "6", "addr:postcode": "04391", "addr:street": "\uc774\ud0dc\uc6d0\ub85c16\uae38", "addr:subdistrict": "\uc774\ud0dc\uc6d0\ub3d9", "description": "Eyelash Extensions and Eyebrow tattoo, Make-up.", "name": "Itaewon Eyelash&make-up", "name:ko": "\uc774\ud0dc\uc6d0 \uc18d\ub208\uc379&\uba54\uc774\ud06c\uc5c5", "opening_hours": "Mo-Su 10:00-22:00", "operator": "Toni", "payment:cash": "yes", "payment:credit_cards": "yes", "shop": "tattoo"}}, {"type": "node", "id": 5919719285, "lat": 37.5344048, "lon": 126.9895614, "tags": {"level": "0", "level:ref": "1\uce35", "name": "\uc288\ub799", "name:en": "Shoe Rack", "name:ko": "\uc288\ub799", "shop": "shoes"}}, {"type": "node", "id": 5919801185, "lat": 37.5344741, "lon": 126.9916909, "tags": {"name:en": "ABC Mart", "shop": "shoes"}}, {"type": "node", "id": 5919801385, "lat": 37.534524, "lon": 126.9920173, "tags": {"name:en": "New World Shoes", "shop": "shoes"}}, {"type": "node", "id": 5919801485, "lat": 37.5346571, "lon": 126.9934899, "tags": {"brand": "Under Armour", "brand:wikidata": "Q2031485", "brand:wikipedia": "en:Under Armour", "clothes": "men;women", "name": "Under Armour", "name:en": "Under Armour", "shop": "clothes"}}, {"type": "node", "id": 5923601185, "lat": 37.5341002, "lon": 126.99574, "tags": {"amenity": "bar", "name:en": "Club Zion"}}, {"type": "node", "id": 6003871489, "lat": 37.5338861, "lon": 126.9932806, "tags": {"amenity": "restaurant", "name:en": "Big Heart Restaurant"}}, {"type": "node", "id": 6018982286, "lat": 37.536177, "lon": 126.9993531, "tags": {"amenity": "restaurant", "name:en": "sigol bapsang itaewon"}}, {"type": "node", "id": 6341821287, "lat": 37.5354824, "lon": 126.9991368, "tags": {"amenity": "restaurant", "diet:vegetarian": "yes", "name:en": "Monk's Butcher", "opening_hours": "Su, Tu-Th 18:00-22:00; Fr-Sa 18:00-00:00"}}, {"type": "node", "id": 6385836686, "lat": 37.5369027, "lon": 127.0017401, "tags": {"addr:city": "\uc11c\uc6b8\ud2b9\ubcc4\uc2dc", "addr:district": "\uc6a9\uc0b0\uad6c", "addr:housenumber": "32", "addr:postcode": "04400", "addr:street": "\uc774\ud0dc\uc6d0\ub85c54\uae38", "addr:subdistrict": "\ud55c\ub0a8\ub3d9", "amenity": "restaurant", "name:en": "La Ferme", "opening_hours": "Mo-Su 11:30-15:00, 16:00-21:00"}}, {"type": "node", "id": 6388513286, "lat": 37.5345348, "lon": 126.9880575, "tags": {"amenity": "restaurant", "name": "BCS Boiling Crab & Shrimp korea"}}, {"type": "node", "id": 6579763685, "lat": 37.5348025, "lon": 126.9919367, "tags": {"addr:city": "\uc11c\uc6b8\ud2b9\ubcc4\uc2dc", "addr:district": "\uc6a9\uc0b0\uad6c", "addr:housenumber": "6", "addr:postcode": "04350", "addr:street": "\uc774\ud0dc\uc6d0\ub85c19\uae38", "addr:subdistrict": "\uc774\ud0dc\uc6d0\ub3d9", "amenity": "pub", "cuisine": "italian", "level": "3", "name": "\ub85c\uc988\uc564\ud06c\ub77c\uc6b42", "phone": "+82 2 794 2555", "source": "\uacf5\uacf5\ub370\uc774\ud130\ud3ec\ud138"}}, {"type": "node", "id": 6598377666, "lat": 37.5341823, "lon": 126.9912942, "tags": {"shop": "shoes"}}, {"type": "node", "id": 6598418767, "lat": 37.5341778, "lon": 126.9910945, "tags": {"name": "\ub808\ub4dc\ucee8\ud14c\uc774\ub108", "name:en": "Red Container", "name:ko": "\ub808\ub4dc\ucee8\ud14c\uc774\ub108", "shop": "erotic"}}, {"type": "node", "id": 6598425895, "lat": 37.5341926, "lon": 126.9914306, "tags": {"level": "0", "level:ref": "1\uce35", "name": "\ud0c8\ub79c\ud2b8", "name:en": "Talent", "name:ko": "\ud0c8\ub79c\ud2b8", "shop": "jewelry"}}, {"type": "node", "id": 6598427509, "lat": 37.5344486, "lon": 126.989017, "tags": {"amenity": "restaurant"}}, {"type": "node", "id": 6598427748, "lat": 37.5344228, "lon": 126.9890968, "tags": {"level": "0", "level:ref": "1\uce35", "name": "\ud50c\ub77c\uc6cc\ubc14\uc774\ubbfc", "name:en": "Flower by Min", "name:ko": "\ud50c\ub77c\uc6cc\ubc14\uc774\ubbfc", "shop": "florist"}}, {"type": "node", "id": 6598430612, "lat": 37.5345935, "lon": 126.9889128, "tags": {"amenity": "restaurant", "name": "Gilbert's Burger & Fries"}}, {"type": "node", "id": 6598434606, "lat": 37.5341728, "lon": 126.9911906, "tags": {"amenity": "restaurant", "level": "1"}}, {"type": "node", "id": 6598434791, "lat": 37.5355829, "lon": 126.9898014, "tags": {"brand": "CU", "brand:wikidata": "Q12580836", "name": "CU", "shop": "convenience"}}, {"type": "node", "id": 6598434990, "lat": 37.534182, "lon": 126.9911761, "tags": {"level": "0", "level:ref": "1\uce35", "name": "\uc5e0\ud30c\uc774\uc5b4", "name:en": "Empire", "name:ko": "\uc5e0\ud30c\uc774\uc5b4", "shop": "clothes"}}, {"type": "node", "id": 6598435190, "lat": 37.53418, "lon": 126.991199, "tags": {"level": "0", "level:ref": "1\uce35", "name": "\uc544\ud3f4\ub85c\uc0f5", "name:en": "Appolo Shop", "name:ko": "\uc544\ud3f4\ub85c\uc0f5", "shop": "clothes"}}, {"type": "node", "id": 6598899259, "lat": 37.5347548, "lon": 126.9961497, "tags": {"amenity": "restaurant", "indoor_seating": "yes", "name": "Pizza Muzzo", "outdoor_seating": "no"}}, {"type": "node", "id": 6598928771, "lat": 37.5352396, "lon": 126.998479, "tags": {"name": "Godiva", "shop": "chocolate"}}, {"type": "node", "id": 6598934037, "lat": 37.5351251, "lon": 126.9950085, "tags": {"brand": "CU", "brand:wikidata": "Q12580836", "brand:wikipedia": "ko:CU (\ud3b8\uc758\uc810)", "name": "CU", "shop": "convenience"}}, {"type": "node", "id": 6598934762, "lat": 37.5345364, "lon": 126.9971689, "tags": {"name": "The Flat", "shop": "shoes"}}, {"type": "node", "id": 6598937279, "lat": 37.5341951, "lon": 126.9957523, "tags": {"brand": "\uc138\ube10\uc77c\ub808\ube10", "brand:en": "7-Eleven", "brand:ko": "\uc138\ube10\uc77c\ub808\ube10", "brand:wikidata": "Q259340", "brand:wikipedia": "en:7-Eleven", "name": "\uc138\ube10\uc77c\ub808\ube10", "name:en": "7-Eleven", "name:ja": "\u30bb\u30d6\u30f3-\u30a4\u30ec\u30d6\u30f3", "name:ko": "\uc138\ube10\uc77c\ub808\ube10", "shop": "convenience", "wheelchair": "no"}}, {"type": "node", "id": 6598940216, "lat": 37.5350406, "lon": 126.993577, "tags": {"amenity": "pub", "level": "0", "name": "Prost", "outdoor_seating": "yes"}}, {"type": "node", "id": 6598941259, "lat": 37.5346278, "lon": 126.9936621, "tags": {"brand": "Lush", "brand:wikidata": "Q1585448", "brand:wikipedia": "en:Lush (company)", "name": "Lush", "shop": "cosmetics"}}, {"type": "node", "id": 6598941652, "lat": 37.5358346, "lon": 126.9995802, "tags": {"name": "Ann", "shop": "clothes"}}, {"type": "node", "id": 6598941653, "lat": 37.5347085, "lon": 126.9921831, "tags": {"amenity": "bar", "name": "Caligari"}}, {"type": "node", "id": 6598941691, "lat": 37.5331711, "lon": 126.9954773, "tags": {"amenity": "fast_food", "brand": "Papa John's", "brand:wikidata": "Q2759586", "brand:wikipedia": "en:Papa John's Pizza", "cuisine": "pizza", "level": "1", "name": "Papa John's", "takeaway": "yes"}}, {"type": "node", "id": 6598941810, "lat": 37.5357455, "lon": 126.999442, "tags": {"name": "Porter", "shop": "bag"}}, {"type": "node", "id": 6598942003, "lat": 37.5347402, "lon": 126.9953968, "tags": {"shop": "optician"}}, {"type": "node", "id": 6598944128, "lat": 37.534311, "lon": 126.9955144, "tags": {"amenity": "restaurant", "level": "0", "name": "Pizza Revolution"}}, {"type": "node", "id": 6598944227, "lat": 37.5348558, "lon": 126.9939825, "tags": {"amenity": "restaurant", "name": "Holee-Chow"}}, {"type": "node", "id": 6598945105, "lat": 37.5347983, "lon": 126.9940781, "tags": {"amenity": "atm", "brand": "\uc2e0\ud55c\uc740\ud589", "brand:en": "Shinhan Bank", "brand:ko": "\uc2e0\ud55c\uc740\ud589", "brand:wikidata": "Q487230", "name": "\uc2e0\ud55c\uc740\ud589", "name:en": "Shinhan Bank", "name:ko": "\uc2e0\ud55c\uc740\ud589", "operator": "\uc2e0\ud55c\uc740\ud589", "operator:wikidata": "Q487230"}}, {"type": "node", "id": 6598945766, "lat": 37.534592, "lon": 126.9973876, "tags": {"name": "Billy Angel Cake Company", "shop": "pastry"}}, {"type": "node", "id": 6598947695, "lat": 37.5349825, "lon": 126.9926366, "tags": {"amenity": "pub", "name": "Fat Albert's"}}, {"type": "node", "id": 6598948329, "lat": 37.535021, "lon": 126.9926259, "tags": {"amenity": "pub", "level": "1", "name": "Sam Ryan's"}}, {"type": "node", "id": 6598948989, "lat": 37.5350614, "lon": 126.9938779, "tags": {"amenity": "bar", "level": "1", "name": "Day and Night"}}, {"type": "node", "id": 6598949834, "lat": 37.534836, "lon": 126.9936288, "tags": {"amenity": "bar", "name": "Lazy Cat"}}, {"type": "node", "id": 6598950006, "lat": 37.5343856, "lon": 126.9953746, "tags": {"amenity": "pub", "level": "2", "name": "Ember"}}, {"type": "node", "id": 6598950290, "lat": 37.5320052, "lon": 126.9961504, "tags": {"amenity": "fast_food", "name": "PB+"}}, {"type": "node", "id": 6600061689, "lat": 37.5343991, "lon": 126.9949689, "tags": {"amenity": "cafe", "brand": "\uc2a4\ud0c0\ubc85\uc2a4", "brand:en": "Starbucks", "brand:ko": "\uc2a4\ud0c0\ubc85\uc2a4", "brand:wikidata": "Q37158", "brand:wikipedia": "en:Starbucks", "cuisine": "coffee_shop", "name": "\uc2a4\ud0c0\ubc85\uc2a4", "name:en": "Starbucks", "name:ko": "\uc2a4\ud0c0\ubc85\uc2a4", "official_name": "Starbucks Coffee", "takeaway": "yes"}}, {"type": "node", "id": 6851811017, "lat": 37.5338644, "lon": 126.9934562, "tags": {"addr:city": "\uc11c\uc6b8\ud2b9\ubcc4\uc2dc", "addr:district": "\uc6a9\uc0b0\uad6c", "addr:housenumber": "9", "addr:postcode": "04391", "addr:street": "\ubcf4\uad11\ub85c59\uae38", "addr:subdistrict": "\uc774\ud0dc\uc6d0\ub3d9", "amenity": "bar", "name": "\ud53c\uc2a4\ud2f8", "name:en": "PISTIL", "name:ko": "\ud53c\uc2a4\ud2f8"}}, {"type": "node", "id": 6851811022, "lat": 37.5339048, "lon": 126.9935434}, {"type": "node", "id": 6851811023, "lat": 37.5338559, "lon": 126.9935407}, {"type": "node", "id": 6851811024, "lat": 37.5337974, "lon": 126.9935059}, {"type": "node", "id": 6851811025, "lat": 37.533757, "lon": 126.9936024}, {"type": "node", "id": 6851811026, "lat": 37.533825, "lon": 126.9936427}, {"type": "node", "id": 6851811027, "lat": 37.5338442, "lon": 126.9936051}, {"type": "node", "id": 6851811028, "lat": 37.5339058, "lon": 126.9936011}, {"type": "node", "id": 6939264105, "lat": 37.5333394, "lon": 126.9943777, "tags": {"amenity": "restaurant", "name:en": "Cote jardin"}}, {"type": "node", "id": 6961296988, "lat": 37.5343917, "lon": 126.9931201, "tags": {"internet_access": "wlan", "name": "\uc54c\ud398\ub3c4 \ubca0\uc774\ucee4\ub9ac", "shop": "bakery"}}, {"type": "node", "id": 7170659985, "lat": 37.534956, "lon": 126.992571, "tags": {"amenity": "bar", "name": "\uc2a4\ud14c\uc5b4\uc6e8\uc774", "name:en": "Stairway"}}, {"type": "node", "id": 7519789128, "lat": 37.5334221, "lon": 126.9957438, "tags": {"addr:city": "\uc11c\uc6b8\ud2b9\ubcc4\uc2dc", "addr:district": "\uc6a9\uc0b0\uad6c", "addr:housenumber": "36", "addr:postcode": "04405", "addr:street": "\uc6b0\uc0ac\ub2e8\ub85c", "addr:subdistrict": "\uc774\ud0dc\uc6d0\ub3d9", "amenity": "bar", "name": "\ud074\ub7fd \ud798", "name:en": "Club HIM", "name:ko": "\ud074\ub7fd \ud074\ub7fd \ud798"}}, {"type": "node", "id": 7519789129, "lat": 37.5335157, "lon": 126.9962065, "tags": {"addr:city": "\uc11c\uc6b8\ud2b9\ubcc4\uc2dc", "addr:district": "\uc6a9\uc0b0\uad6c", "addr:housenumber": "10", "addr:postcode": "04405", "addr:street": "\uc6b0\uc0ac\ub2e8\ub85c12\uae38", "addr:subdistrict": "\uc774\ud0dc\uc6d0\ub3d9", "amenity": "bar", "name": "\ud074\ub7fd \uc18c\ud638", "name:en": "Club soho", "name:ko": "\ud074\ub7fd \uc18c\ud638"}}, {"type": "node", "id": 7519789152, "lat": 37.5336508, "lon": 126.9960362, "tags": {"addr:city": "\uc11c\uc6b8\ud2b9\ubcc4\uc2dc", "addr:district": "\uc6a9\uc0b0\uad6c", "addr:housenumber": "46", "addr:street": "\uc6b0\uc0ac\ub2e8\ub85c12\uae38", "amenity": "bar", "name": "\ud074\ub7fd \ud038", "name:en": "Club Queen", "name:ko": "\ud074\ub7fd \ud038"}}, {"type": "node", "id": 7519789159, "lat": 37.5336705, "lon": 126.995733, "tags": {"addr:city": "\uc11c\uc6b8\ud2b9\ubcc4\uc2dc", "addr:district": "\uc6a9\uc0b0\uad6c", "addr:housenumber": "40", "addr:postcode": "04405", "addr:street": "\uc6b0\uc0ac\ub2e8\ub85c", "addr:subdistrict": "\uc774\ud0dc\uc6d0\ub3d9", "amenity": "bar", "name": "\ud0b9\ud074\ub7fd", "name:en": "King Club", "name:ko": "\ud0b9\ud074\ub7fd"}}, {"type": "node", "id": 7519789178, "lat": 37.5342006, "lon": 126.9957948, "tags": {"addr:city": "\uc11c\uc6b8\ud2b9\ubcc4\uc2dc", "addr:district": "\uc6a9\uc0b0\uad6c", "addr:housenumber": "46", "addr:postcode": "04405", "addr:street": "\uc6b0\uc0ac\ub2e8\ub85c", "addr:subdistrict": "\uc774\ud0dc\uc6d0\ub3d9", "amenity": "bar", "name": "\ud2b8\ub801\ud06c", "name:en": "Trunk", "name:ko": "\ud2b8\ub801\ud06c"}}, {"type": "node", "id": 7520731961, "lat": 37.5352088, "lon": 126.9930395, "tags": {"addr:city": "\uc11c\uc6b8\ud2b9\ubcc4\uc2dc", "addr:district": "\uc6a9\uc0b0\uad6c", "addr:housenumber": "16-5", "addr:postcode": "04350", "addr:street": "\uc774\ud0dc\uc6d0\ub85c23\uae38", "addr:subdistrict": "\uc774\ud0dc\uc6d0\ub3d9", "amenity": "bar", "name": "\ub354\ud30c\uc6b4\ud2f4", "name:en": "FOUNTAIN", "name:ko": "\ub354\ud30c\uc6b4\ud2f4"}}, {"type": "node", "id": 7520731975, "lat": 37.5337459, "lon": 126.9960348, "tags": {"addr:city": "\uc11c\uc6b8\ud2b9\ubcc4\uc2dc", "addr:district": "\uc6a9\uc0b0\uad6c", "addr:housenumber": "40", "addr:postcode": "04405", "addr:street": "\uc6b0\uc0ac\ub2e8\ub85c", "addr:subdistrict": "\uc774\ud0dc\uc6d0\ub3d9", "amenity": "bar", "name": "\uc220\ud310", "name:ko": "\uc220\ud310"}}, {"type": "node", "id": 7520732093, "lat": 37.535363, "lon": 126.9983965, "tags": {"addr:city": "\uc11c\uc6b8\ud2b9\ubcc4\uc2dc", "addr:district": "\uc6a9\uc0b0\uad6c", "addr:housenumber": "221", "addr:postcode": "04349", "addr:street": "\uc774\ud0dc\uc6d0\ub85c", "addr:subdistrict": "\ud55c\ub0a8\ub3d9", "amenity": "bar", "name": "\uba54\uc774\ub4dc", "name:en": "King MADE", "name:ko": "\uba54\uc774\ub4dc"}}, {"type": "node", "id": 7559560389, "lat": 37.5359534, "lon": 126.9998535, "tags": {"amenity": "restaurant", "name": "\uae38\uc12d\ud55c\uc2dd\ubdd4\ud398", "name:ko": "\uae38\uc136\ud55c\uc2dd\ubdd4\ud398"}}, {"type": "node", "id": 7765411936, "lat": 37.5368607, "lon": 127.0002473, "tags": {"addr:city": "\uc11c\uc6b8\ud2b9\ubcc4\uc2dc", "addr:district": "\uc6a9\uc0b0\uad6c", "addr:housenumber": "245", "addr:postcode": "04348", "addr:street": "\uc774\ud0dc\uc6d0\ub85c", "addr:subdistrict": "\ud55c\ub0a8\ub3d9", "amenity": "restaurant", "cuisine": "korean", "name": "\ubc14\ub2e4\uc2dd\ub2f9"}}, {"type": "node", "id": 7765411937, "lat": 37.5368478, "lon": 127.0001214, "tags": {"amenity": "restaurant", "name": "\ubd80\uc790\ud53c\uc790", "name:en": "Pizzeria d' Buzza", "name:ko": "\ubd80\uc790\ud53c\uc790"}}, {"type": "node", "id": 7820142685, "lat": 37.535127, "lon": 126.9920825, "tags": {"amenity": "bar", "name": "Soul train"}}, {"type": "node", "id": 8396083298, "lat": 37.5336847, "lon": 126.9933086, "tags": {"addr:city": "\uc11c\uc6b8\ud2b9\ubcc4\uc2dc", "addr:district": "\uc6a9\uc0b0\uad6c", "addr:housenumber": "16", "addr:postcode": "04391", "addr:street": "\uc774\ud0dc\uc6d0\ub85c26\uae38", "addr:subdistrict": "\uc774\ud0dc\uc6d0\ub3d9", "amenity": "restaurant", "cuisine": "pasta", "name": "\ub354\ud32c\ud2b8\ub9ac", "name:en": "THE PANTRY", "name:ko": "\ub354\ud32c\ud2b8\ub9ac"}}, {"type": "node", "id": 8396384611, "lat": 37.534945, "lon": 126.9945458, "tags": {"amenity": "pub", "name": "\ub2e8\ucf54", "name:en": "DANCO", "name:ko": "\ub2e8\ucf54"}}, {"type": "node", "id": 8441063971, "lat": 37.536785, "lon": 127.0016067, "tags": {"addr:city": "\uc11c\uc6b8\ud2b9\ubcc4\uc2dc", "addr:district": "\uc6a9\uc0b0\uad6c", "addr:housenumber": "36", "addr:postcode": "04400", "addr:street": "\uc774\ud0dc\uc6d0\ub85c54\uae38", "addr:subdistrict": "\ud55c\ub0a8\ub3d9", "amenity": "restaurant", "cuisine": "american", "description": "Fast casual dining pub \ubbf8\ud2b8\ubcfc\uc804\ubb38\uc810\uc73c\ub85c \ub2e4\uc591\ud55c \ubbf8\uad6d\uc2dd \ud4e8\uc804\uc74c\uc2dd\uacfc \ub9e5\uc8fc\ub97c \ud2b8\ub80c\ub514\ud558\uac8c \uc990\uae38 \uc218 \uc788\uc2b5\ub2c8\ub2e4", "level": "1", "name": "\ubbf8\ud2b8\ubcfc\ub77c\uc6b4\uc9c0", "phone": "+82 2 790 1102", "source": "\uacf5\uacf5\ub370\uc774\ud130\ud3ec\ud138"}}, {"type": "node", "id": 8441063974, "lat": 37.5331987, "lon": 126.9912158, "tags": {"addr:city": "\uc11c\uc6b8\ud2b9\ubcc4\uc2dc", "addr:district": "\uc6a9\uc0b0\uad6c", "addr:housenumber": "29-1", "addr:postcode": "04391", "addr:street": "\uc774\ud0dc\uc6d0\ub85c14\uae38", "addr:subdistrict": "\uc774\ud0dc\uc6d0\ub3d9", "amenity": "restaurant", "cuisine": "cameroonian", "description": "\uc544\ud504\ub9ac\uce74\uc758 \ud488\uc18d\uc73c\ub85c", "level": "2", "name": "Africanport", "phone": "+82 2 792 9214", "source": "\uacf5\uacf5\ub370\uc774\ud130\ud3ec\ud138"}}, {"type": "node", "id": 8441063975, "lat": 37.5354657, "lon": 126.9911929, "tags": {"addr:city": "\uc11c\uc6b8\ud2b9\ubcc4\uc2dc", "addr:district": "\uc6a9\uc0b0\uad6c", "addr:housenumber": "23-13", "addr:postcode": "04351", "addr:street": "\uc774\ud0dc\uc6d0\ub85c17\uae38", "addr:subdistrict": "\uc774\ud0dc\uc6d0\ub3d9", "amenity": "restaurant", "cuisine": "french", "description": "\uce90\uc96c\uc5bc\ud55c \ud504\ub80c\uce58 \ub808\uc2a4\ud1a0\ub791", "level": "1", "name": "\ubc14\uc774\ud734\uace0", "phone": "+82 70 4063 1642", "source": "\uacf5\uacf5\ub370\uc774\ud130\ud3ec\ud138"}}, {"type": "node", "id": 8441101584, "lat": 37.535336, "lon": 126.9918944, "tags": {"addr:city": "\uc11c\uc6b8\ud2b9\ubcc4\uc2dc", "addr:district": "\uc6a9\uc0b0\uad6c", "addr:housenumber": "20", "addr:postcode": "04350", "addr:street": "\uc774\ud0dc\uc6d0\ub85c19\uae38", "addr:subdistrict": "\uc774\ud0dc\uc6d0\ub3d9", "amenity": "restaurant", "cuisine": "american", "description": "\ub2f4\ubc31\ud55c \uc2dc\uce74\uace0 \ud53c\uc790\uc640 \ud30c\uc2a4\ud0c0", "level": "1", "name": "\ub514\ud2b8\ub85c\uc774\ud2b8", "phone": "+82 2 792 1231", "source": "\uacf5\uacf5\ub370\uc774\ud130\ud3ec\ud138"}}, {"type": "node", "id": 8441101585, "lat": 37.5340242, "lon": 126.9942253, "tags": {"addr:city": "\uc11c\uc6b8\ud2b9\ubcc4\uc2dc", "addr:district": "\uc6a9\uc0b0\uad6c", "addr:housenumber": "126", "addr:postcode": "04406", "addr:street": "\ubcf4\uad11\ub85c", "addr:subdistrict": "\uc774\ud0dc\uc6d0\ub3d9", "amenity": "restaurant", "cuisine": "turkish", "description": "\ub2e4\uc591\ud55c \ud130\ud0a4 \ucf00\ubc25\uacfc \ud560\ub784 \uc74c\uc2dd\uc758 \ub300\ud45c\uc801 \uc74c\uc2dd\uc810", "name": "\uc220\ud0c4\ubca0\uc774\ucf00\ubc25", "name:ko": "\uc220\ud0c4\ucf00\ubc25", "phone": "+82 2 749 3890", "source": "\uacf5\uacf5\ub370\uc774\ud130\ud3ec\ud138"}}, {"type": "node", "id": 8441101586, "lat": 37.5339528, "lon": 126.9958029, "tags": {"addr:city": "\uc11c\uc6b8\ud2b9\ubcc4\uc2dc", "addr:district": "\uc6a9\uc0b0\uad6c", "addr:housenumber": "42", "addr:postcode": "04405", "addr:street": "\uc6b0\uc0ac\ub2e8\ub85c", "addr:subdistrict": "\uc774\ud0dc\uc6d0\ub3d9", "amenity": "restaurant", "cuisine": "turkish", "description": "\ub2e4\uc591\ud55c \ud130\ud0a4 \ucf00\ubc25\uacfc \ud560\ub784 \uc74c\uc2dd\uc758 \ub300\ud45c\uc801 \uc74c\uc2dd\uc810", "name": "\ubbf8\uc2a4\ud130\ucf00\ubc25 2\ud638\uc810", "phone": "+82 70 7532 1997", "source": "\uacf5\uacf5\ub370\uc774\ud130\ud3ec\ud138"}}, {"type": "node", "id": 8441101587, "lat": 37.5347775, "lon": 126.9952978, "tags": {"addr:city": "\uc11c\uc6b8\ud2b9\ubcc4\uc2dc", "addr:district": "\uc6a9\uc0b0\uad6c", "addr:housenumber": "191", "addr:postcode": "04350", "addr:street": "\uc774\ud0dc\uc6d0\ub85c", "addr:subdistrict": "\uc774\ud0dc\uc6d0\ub3d9", "amenity": "restaurant", "cuisine": "turkish", "description": "\ub2e4\uc591\ud55c \ud130\ud0a4 \ucf00\ubc25\uacfc \ud560\ub784 \uc74c\uc2dd\uc758 \ub300\ud45c\uc801 \uc74c\uc2dd\uc810", "level": "1; 2", "name": "\ubbf8\uc2a4\ud130\ucf00\ubc25 \ubcf8\uc810", "phone": "+82 70 7758 1997", "source": "\uacf5\uacf5\ub370\uc774\ud130\ud3ec\ud138"}}, {"type": "node", "id": 8441101594, "lat": 37.5340401, "lon": 126.9915457, "tags": {"addr:city": "\uc11c\uc6b8\ud2b9\ubcc4\uc2dc", "addr:district": "\uc6a9\uc0b0\uad6c", "addr:housenumber": "2-10", "addr:postcode": "04391", "addr:street": "\uc774\ud0dc\uc6d0\ub85c20\uae38", "addr:subdistrict": "\uc774\ud0dc\uc6d0\ub3d9", "amenity": "restaurant", "cuisine": "american", "description": "Traditional American Classic Style", "level": "1", "name": "\uae38\ud2f0\ud50c\ub808\uc838", "name:en": "Guilty Pleasure", "name:ko": "\uae38\ud2f0\ud50c\ub808\uc838", "phone": "+82 2 794 4332", "source": "\uacf5\uacf5\ub370\uc774\ud130\ud3ec\ud138"}}, {"type": "node", "id": 8441101596, "lat": 37.5348972, "lon": 126.9917099, "tags": {"addr:city": "\uc11c\uc6b8\ud2b9\ubcc4\uc2dc", "addr:district": "\uc6a9\uc0b0\uad6c", "addr:housenumber": "9", "addr:postcode": "04351", "addr:street": "\uc774\ud0dc\uc6d0\ub85c19\uae38", "addr:subdistrict": "\uc774\ud0dc\uc6d0\ub3d9", "amenity": "restaurant", "cuisine": "czech", "description": "\uccb4\ucf54\uc2a4\ud0c0\uc77c\uc758 \uc288\ub2c8\uccbc\uacfc \uc9c1\uc811 \uc218\uc785\ud55c \uccb4\ucf54 \uc0dd\ub9e5\uc8fc\ub97c \uc990\uae38 \uc218 \uc788\ub294 \uacf3", "level": "1", "name": "\ud38d\uc564\uadf8\ub9b4 \ud504\ub77c\ud558", "phone": "+82 2 796 2181", "source": "\uacf5\uacf5\ub370\uc774\ud130\ud3ec\ud138"}}, {"type": "node", "id": 8441101597, "lat": 37.537668, "lon": 127.0004978, "tags": {"addr:city": "\uc11c\uc6b8\ud2b9\ubcc4\uc2dc", "addr:district": "\uc6a9\uc0b0\uad6c", "addr:housename": "\uc2a4\uce74\uc774\ube4c", "addr:housenumber": "13", "addr:postcode": "04348", "addr:street": "\uc774\ud0dc\uc6d0\ub85c55\uac00\uae38", "addr:subdistrict": "\ud55c\ub0a8\ub3d9", "amenity": "restaurant", "cuisine": "italian", "description": "\ucee8\ud15c\ud37c\uccd0\ub9ac \uacc4\uc808\uc2dd\uc7ac\ub8cc\ub97c \uc774\uc6a9\ud55c \ud2b8\ub80c\ub4dc\ud55c \uc74c\uc2dd\uacfc \ubd84\uc704\uae30\ub97c \uc81c\uacf5", "level": "1", "name": "\uc544\ubc29\ubba4\uc81c", "phone": "+82 2 790 7392", "source": "\uacf5\uacf5\ub370\uc774\ud130\ud3ec\ud138"}}, {"type": "node", "id": 8441101601, "lat": 37.5364391, "lon": 127.0013804, "tags": {"addr:city": "\uc11c\uc6b8\ud2b9\ubcc4\uc2dc", "addr:district": "\uc6a9\uc0b0\uad6c", "addr:housenumber": "46", "addr:postcode": "04400", "addr:street": "\uc774\ud0dc\uc6d0\ub85c54\uae38", "addr:subdistrict": "\ud55c\ub0a8\ub3d9", "amenity": "restaurant", "cuisine": "japanese", "description": "\uce74\ub808\uc804\ubb38\uc810\uc73c\ub85c \uce74\ub808\ub97c \uc81c\uc678\ud55c \uc694\uc77c\ubcc4\ub85c \ub2e4\ub978 \uc77c\ubcf8\uac00\uc815\uc11d\uc744 \uc990\uae38 \uc218 \uc788\ub294 \ub9e4\uc7a5\uc785\ub2c8\ub2e4", "level": "1", "name": "\ub77c\uc6b4\ub4dc \uc5b4\ubc14\uc6c3", "name:en": "ROUND ABOUT", "name:ko": "\ub77c\uc6b4\ub4dc \uc5b4\ubc14\uc6c3", "phone": "+82 70 5055 2258", "source": "\uacf5\uacf5\ub370\uc774\ud130\ud3ec\ud138"}}, {"type": "node", "id": 8441101604, "lat": 37.5371995, "lon": 127.0001312, "tags": {"addr:city": "\uc11c\uc6b8\ud2b9\ubcc4\uc2dc", "addr:district": "\uc6a9\uc0b0\uad6c", "addr:housenumber": "8", "addr:postcode": "04348", "addr:street": "\uc774\ud0dc\uc6d0\ub85c49\uae38", "addr:subdistrict": "\ud55c\ub0a8\ub3d9", "amenity": "restaurant", "cuisine": "italian", "description": "\uac00\uc815\uc2dd \uc774\ud0c8\ub9ac\uc548", "level": "1", "name": "(\uc8fc)\ub9c8\ub818\ub9c8\ud2b8\ub77c\ud1a0\ub9ac\uc544", "phone": "+82 2 790 2023", "source": "\uacf5\uacf5\ub370\uc774\ud130\ud3ec\ud138"}}, {"type": "node", "id": 8441101605, "lat": 37.5361976, "lon": 126.9993438, "tags": {"addr:city": "\uc11c\uc6b8\ud2b9\ubcc4\uc2dc", "addr:district": "\uc6a9\uc0b0\uad6c", "addr:housenumber": "4", "addr:postcode": "04348", "addr:street": "\uc774\ud0dc\uc6d0\ub85c45\uae38", "addr:subdistrict": "\ud55c\ub0a8\ub3d9", "amenity": "restaurant", "cuisine": "japanese", "description": "\uc2e0\uc120\ud55c \ucd08\ubc25\uacfc \ub864\uc744 \ub9db\uc788\uac8c \ub4dc\uc2e4 \uc218 \uc788\ub294 \uc74c\uc2dd\uc810", "level": "-1", "name": "\ud0c0\ubca0\ubaa8\ub178", "name:ja": "\u305f\u3079\u3082\u306e", "phone": "+82 2 790 2023", "source": "\uacf5\uacf5\ub370\uc774\ud130\ud3ec\ud138"}}, {"type": "node", "id": 8441101607, "lat": 37.535812, "lon": 126.999828, "tags": {"addr:city": "\uc11c\uc6b8\ud2b9\ubcc4\uc2dc", "addr:district": "\uc6a9\uc0b0\uad6c", "addr:housenumber": "19", "addr:postcode": "04400", "addr:street": "\uc774\ud0dc\uc6d0\ub85c42\uae38", "addr:subdistrict": "\ud55c\ub0a8\ub3d9", "amenity": "restaurant", "cuisine": "american", "description": "\ub9e4\uc77c \uad6c\uc6cc\ub0b4\ub294 \uc218\uc81c\ud53c\uc790\ub97c \uc870\uac01\uc73c\ub85c \ub9e5\uc8fc&\uc9c4\ud1a0\ub2c9\uacfc \uc990\uae38 \uc218 \uc788\ub294 \uacf3", "level": "2", "name": "\ud638\uba38", "phone": "+82 2 790 8839", "source": "\uacf5\uacf5\ub370\uc774\ud130\ud3ec\ud138"}}, {"type": "node", "id": 8441101608, "lat": 37.5349633, "lon": 126.9947604, "tags": {"addr:city": "\uc11c\uc6b8\ud2b9\ubcc4\uc2dc", "addr:district": "\uc6a9\uc0b0\uad6c", "addr:housenumber": "9", "addr:postcode": "04350", "addr:street": "\uc774\ud0dc\uc6d0\ub85c27\uac00\uae38", "addr:subdistrict": "\uc774\ud0dc\uc6d0\ub3d9", "amenity": "restaurant", "cuisine": "chinese", "description": "\ub9cc\ub450 \uadc0\uc2e0\ub4e4\uc758 \uc131\uc9c0", "level": "1; 2", "name": "\uc7c8\ub2c8\ub364\ud50c\ub9c12\ud638\uc810", "phone": "+82 2 790 8839", "source": "\uacf5\uacf5\ub370\uc774\ud130\ud3ec\ud138"}}, {"type": "node", "id": 8441101609, "lat": 37.5350693, "lon": 126.9925552, "tags": {"addr:city": "\uc11c\uc6b8\ud2b9\ubcc4\uc2dc", "addr:district": "\uc6a9\uc0b0\uad6c", "addr:housenumber": "50", "addr:postcode": "04350", "addr:street": "\uc774\ud0dc\uc6d0\ub85c27\uac00\uae38", "addr:subdistrict": "\uc774\ud0dc\uc6d0\ub3d9", "amenity": "restaurant", "cuisine": "american", "description": "\uc774\ud0dc\uc6d0 \ucd08\ucc3d\uae30\uc758 \ud38d, \uc678\uad6d\uc778\ub4e4 \uc0ac\uc774\uc5d0\uc11c \uc54c\ub824\uc9d0, \uc800\ub834\ud558\uace0 \ub9db\uc788\ub294 \uc74c\uc2dd\uacfc \uc220", "level": "1; 2", "name": "\ud33b\uc568\ubc84\ud2b8", "phone": "+82 2 749 3336", "source": "\uacf5\uacf5\ub370\uc774\ud130\ud3ec\ud138"}}, {"type": "node", "id": 8441101610, "lat": 37.5348284, "lon": 126.9929227, "tags": {"addr:city": "\uc11c\uc6b8\ud2b9\ubcc4\uc2dc", "addr:district": "\uc6a9\uc0b0\uad6c", "addr:housenumber": "43", "addr:postcode": "04350", "addr:street": "\uc774\ud0dc\uc6d0\ub85c27\uac00\uae38", "addr:subdistrict": "\uc774\ud0dc\uc6d0\ub3d9", "amenity": "restaurant", "cuisine": "greek", "description": "\uc815\ud1b5 \uc6f0\ube59 \uc9c0\uc911\ud574 \uc2dd\ub2e8", "level": "2; 3", "name": "\uc0b0\ud1a0\ub9ac\ub2c8", "phone": "+82 2 790 3474", "source": "\uacf5\uacf5\ub370\uc774\ud130\ud3ec\ud138"}}, {"type": "node", "id": 8441101611, "lat": 37.5350549, "lon": 126.9929897, "tags": {"addr:city": "\uc11c\uc6b8\ud2b9\ubcc4\uc2dc", "addr:district": "\uc6a9\uc0b0\uad6c", "addr:housenumber": "40", "addr:postcode": "04350", "addr:street": "\uc774\ud0dc\uc6d0\ub85c27\uac00\uae38", "addr:subdistrict": "\uc774\ud0dc\uc6d0\ub3d9", "amenity": "restaurant", "cuisine": "italian", "description": "\ube48\ud2f0\uc9c0\ud55c \ubd84\uc704\uae30 \ud53c\uc790, \ud30c\uc2a4\ud0c0 \ub9db\uc9d1\uc73c\ub85c \uc720\uba85\ud55c \ub808\uc2a4\ud1a0\ub791", "level": "1; 2", "name": "(\uc8fc)\ub9c8\uc774\uccbc\uc2dc", "phone": "+82 2 749 1373", "source": "\uacf5\uacf5\ub370\uc774\ud130\ud3ec\ud138"}}, {"type": "node", "id": 8441101612, "lat": 37.5351559, "lon": 126.9942705, "tags": {"addr:city": "\uc11c\uc6b8\ud2b9\ubcc4\uc2dc", "addr:district": "\uc6a9\uc0b0\uad6c", "addr:housenumber": "18", "addr:postcode": "04350", "addr:street": "\uc774\ud0dc\uc6d0\ub85c27\uac00\uae38", "addr:subdistrict": "\uc774\ud0dc\uc6d0\ub3d9", "amenity": "restaurant", "cuisine": "italian", "description": "\ud55c\uad6d\uc778 \uc785\ub9db\uc5d0 \ub9de\ucd98 \ub9db\uc788\ub294 \uc774\ud0c8\ub9ac\uc548 \ub808\uc2a4\ud1a0\ub791", "level": "-1", "name": "\ub098\uc778\ud2f0\ubaa8", "phone": "+82 2 790 4285", "source": "\uacf5\uacf5\ub370\uc774\ud130\ud3ec\ud138"}}, {"type": "node", "id": 8441101613, "lat": 37.5351631, "lon": 126.9944198, "tags": {"addr:city": "\uc11c\uc6b8\ud2b9\ubcc4\uc2dc", "addr:district": "\uc6a9\uc0b0\uad6c", "addr:housenumber": "16", "addr:postcode": "04350", "addr:street": "\uc774\ud0dc\uc6d0\ub85c27\uac00\uae38", "addr:subdistrict": "\uc774\ud0dc\uc6d0\ub3d9", "amenity": "restaurant", "cuisine": "american", "description": "New American Plates, Small Plates", "level": "-1; 1; 2", "name": "\ub798\ubbf8\uc2a4", "name:en": "Ramie`s", "name:ko": "\ub798\ubbf8\uc2a4", "phone": "+82 2 6237 2020", "source": "\uacf5\uacf5\ub370\uc774\ud130\ud3ec\ud138"}}, {"type": "node", "id": 8441101615, "lat": 37.5349505, "lon": 126.9945692, "tags": {"addr:city": "\uc11c\uc6b8\ud2b9\ubcc4\uc2dc", "addr:district": "\uc6a9\uc0b0\uad6c", "addr:housenumber": "13", "addr:postcode": "04350", "addr:street": "\uc774\ud0dc\uc6d0\ub85c27\uac00\uae38", "addr:subdistrict": "\uc774\ud0dc\uc6d0\ub3d9", "amenity": "restaurant", "cuisine": "australian", "description": "\uc5ec\ub7ec\ub098\ub77c\uc758 \ub2e4\uc591\ud55c \uc74c\uc2dd\ubb38\ud654\ub97c \ub354\ud50c\ub77c\uc789\ud32c\ube14\ub8e8\uc758 \uac10\uac01\uc73c\ub85c \uc138\ub828\ub418\uace0 \ubaa8\ub358\ud558\uac8c \uc7ac\ud574\uc11d\ud558\uc5ec \uc120\ubcf4\uc774\uace0\uc790 \ud569\ub2c8\ub2e4", "level": "-1", "name": "\ub354\ud50c\ub77c\uc789\ud32c\ube14\ub8e8", "phone": "+82 2 793 5285", "source": "\uacf5\uacf5\ub370\uc774\ud130\ud3ec\ud138"}}, {"type": "node", "id": 8441111149, "lat": 37.5382483, "lon": 127.0008599, "tags": {"addr:city": "\uc11c\uc6b8\ud2b9\ubcc4\uc2dc", "addr:district": "\uc6a9\uc0b0\uad6c", "addr:housenumber": "11", "addr:postcode": "04348", "addr:street": "\uc774\ud0dc\uc6d0\ub85c55\uae38", "addr:subdistrict": "\ud55c\ub0a8\ub3d9", "amenity": "restaurant", "cuisine": "japanese", "description": "\uc2a4\uc2dc & \ub370\ud310 \uc804\ubb38", "level": "1; 2", "name": "\uc2a4\uc2dc\uc81c\ud2b8", "name:ko": "\uc2a4\uc2dc\uc81c\ud2b8", "phone": "+82 2 795 4267", "source": "\uacf5\uacf5\ub370\uc774\ud130\ud3ec\ud138"}}, {"type": "node", "id": 8441111151, "lat": 37.5367526, "lon": 126.9997058, "tags": {"addr:city": "\uc11c\uc6b8\ud2b9\ubcc4\uc2dc", "addr:district": "\uc6a9\uc0b0\uad6c", "addr:housenumber": "35", "addr:postcode": "04348", "addr:street": "\uc774\ud0dc\uc6d0\ub85c55\uac00\uae38", "addr:subdistrict": "\ud55c\ub0a8\ub3d9", "amenity": "restaurant", "cuisine": "italian", "description": "\uae30\uc874 \ud30c\uc2a4\ud0c0\uac00 \uc544\ub2cc \uac74\uac15\uc2dd \uc7ac\ub8cc\ub97c \uc0ac\uc6a9\ud55c \uac74\uac15\uc2dd \ud30c\uc2a4\ud0c0", "level": "1", "name": "\ube44\ubc00", "name:en": "Bmeal", "name:ko": "\ube44\ubc00", "phone": "+82 2 797 0715", "source": "\uacf5\uacf5\ub370\uc774\ud130\ud3ec\ud138"}}, {"type": "node", "id": 8441111153, "lat": 37.5343797, "lon": 126.995424, "tags": {"addr:city": "\uc11c\uc6b8\ud2b9\ubcc4\uc2dc", "addr:district": "\uc6a9\uc0b0\uad6c", "addr:housenumber": "192", "addr:postcode": "04406", "addr:street": "\uc774\ud0dc\uc6d0\ub85c", "addr:subdistrict": "\uc774\ud0dc\uc6d0\ub3d9", "amenity": "restaurant", "cuisine": "arab", "name": "\ub450\ubc14\uc774", "name:en": "DUBAI", "name:ko": "\ub450\ubc14\uc774", "phone": "+82 2 798 9277", "source": "\uacf5\uacf5\ub370\uc774\ud130\ud3ec\ud138"}}, {"type": "node", "id": 8441111154, "lat": 37.5343672, "lon": 126.9953445, "tags": {"addr:city": "\uc11c\uc6b8\ud2b9\ubcc4\uc2dc", "addr:district": "\uc6a9\uc0b0\uad6c", "addr:housenumber": "192", "addr:postcode": "04406", "addr:street": "\uc774\ud0dc\uc6d0\ub85c", "addr:subdistrict": "\uc774\ud0dc\uc6d0\ub3d9", "amenity": "restaurant", "cuisine": "turkish", "name": "\uc559\uce74\ub77c\ud3a0\ub808\uc2a4", "phone": "+82 2 3785 3787", "source": "\uacf5\uacf5\ub370\uc774\ud130\ud3ec\ud138"}}, {"type": "node", "id": 8441111155, "lat": 37.5343667, "lon": 126.9953703, "tags": {"addr:city": "\uc11c\uc6b8\ud2b9\ubcc4\uc2dc", "addr:district": "\uc6a9\uc0b0\uad6c", "addr:housenumber": "192", "addr:postcode": "04406", "addr:street": "\uc774\ud0dc\uc6d0\ub85c", "addr:subdistrict": "\uc774\ud0dc\uc6d0\ub3d9", "amenity": "restaurant", "cuisine": "turkish", "description": "\ub2e4\uc591\ud55c \ud130\ud0a4 \ucf00\ubc25\uacfc \ud560\ub784 \uc74c\uc2dd\uc758 \ub300\ud45c\uc801 \uc74c\uc2dd\uc810", "name": "\ubbf8\uc2a4\ud130\ucf00\ubc25", "phone": "+82 2 3463 2356", "source": "\uacf5\uacf5\ub370\uc774\ud130\ud3ec\ud138"}}, {"type": "node", "id": 8441111156, "lat": 37.5343559, "lon": 126.9951485, "tags": {"addr:city": "\uc11c\uc6b8\ud2b9\ubcc4\uc2dc", "addr:district": "\uc6a9\uc0b0\uad6c", "addr:housenumber": "190", "addr:postcode": "04406", "addr:street": "\uc774\ud0dc\uc6d0\ub85c", "addr:subdistrict": "\uc774\ud0dc\uc6d0\ub3d9", "amenity": "restaurant", "cuisine": "turkish", "name": "\ucf00\ub974\ubc18\ub808\uc2a4\ud1a0\ub791", "phone": "+82 2 792 4767", "source": "\uacf5\uacf5\ub370\uc774\ud130\ud3ec\ud138"}}, {"type": "node", "id": 8441111157, "lat": 37.5348568, "lon": 126.9949131, "tags": {"addr:city": "\uc11c\uc6b8\ud2b9\ubcc4\uc2dc", "addr:district": "\uc6a9\uc0b0\uad6c", "addr:housenumber": "189", "addr:postcode": "04350", "addr:street": "\uc774\ud0dc\uc6d0\ub85c", "addr:subdistrict": "\uc774\ud0dc\uc6d0\ub3d9", "amenity": "restaurant", "cuisine": "turkish", "name": "\ud30c\uc0e4", "name:en": "PASHA", "name:ko": "\ud30c\uc0e4", "phone": "+82 2 793 6144", "source": "\uacf5\uacf5\ub370\uc774\ud130\ud3ec\ud138"}}, {"type": "node", "id": 8441111158, "lat": 37.5343414, "lon": 126.9942886, "tags": {"addr:city": "\uc11c\uc6b8\ud2b9\ubcc4\uc2dc", "addr:district": "\uc6a9\uc0b0\uad6c", "addr:housenumber": "182", "addr:postcode": "04406", "addr:street": "\uc774\ud0dc\uc6d0\ub85c", "addr:subdistrict": "\uc774\ud0dc\uc6d0\ub3d9", "amenity": "restaurant", "cuisine": "turkish", "name": "\uc559\uce74\ub77c\ud53c\ud06c\ub2c9", "phone": "+82 2 793 2550", "source": "\uacf5\uacf5\ub370\uc774\ud130\ud3ec\ud138"}}, {"type": "node", "id": 8441111159, "lat": 37.5342289, "lon": 126.9942187, "tags": {"addr:city": "\uc11c\uc6b8\ud2b9\ubcc4\uc2dc", "addr:district": "\uc6a9\uc0b0\uad6c", "addr:housenumber": "180", "addr:postcode": "04406", "addr:street": "\uc774\ud0dc\uc6d0\ub85c", "addr:subdistrict": "\uc774\ud0dc\uc6d0\ub3d9", "amenity": "restaurant", "cuisine": "arab", "name": "\uc2e0\ubc27\ub4dc", "phone": "+82 2 792 0069", "source": "\uacf5\uacf5\ub370\uc774\ud130\ud3ec\ud138"}}, {"type": "node", "id": 8441111160, "lat": 37.5342297, "lon": 126.9941845, "tags": {"addr:city": "\uc11c\uc6b8\ud2b9\ubcc4\uc2dc", "addr:district": "\uc6a9\uc0b0\uad6c", "addr:housenumber": "180", "addr:postcode": "04406", "addr:street": "\uc774\ud0dc\uc6d0\ub85c", "addr:subdistrict": "\uc774\ud0dc\uc6d0\ub3d9", "amenity": "restaurant", "cuisine": "mexican", "name": "\ud0c0\ucf54\ubca8 \uc774\ud0dc\uc6d0\uc9c0\uc810", "phone": "+82 2 749 6696", "source": "\uacf5\uacf5\ub370\uc774\ud130\ud3ec\ud138"}}, {"type": "node", "id": 8441111161, "lat": 37.5342224, "lon": 126.9929445, "tags": {"addr:city": "\uc11c\uc6b8\ud2b9\ubcc4\uc2dc", "addr:district": "\uc6a9\uc0b0\uad6c", "addr:housenumber": "172", "addr:postcode": "04391", "addr:street": "\uc774\ud0dc\uc6d0\ub85c", "addr:subdistrict": "\uc774\ud0dc\uc6d0\ub3d9", "amenity": "restaurant", "cuisine": "american", "name": "(\uc720)\uc544\uc6c3\ubc31\uc2a4\ud14c\uc774\ud06c\ud558\uc6b0\uc2a4 \uc774\ud0dc\uc6d0\uc810", "phone": "+82 2 749 5101", "source": "\uacf5\uacf5\ub370\uc774\ud130\ud3ec\ud138"}}, {"type": "node", "id": 8441111162, "lat": 37.5341863, "lon": 126.9920801, "tags": {"addr:city": "\uc11c\uc6b8\ud2b9\ubcc4\uc2dc", "addr:district": "\uc6a9\uc0b0\uad6c", "addr:housenumber": "164", "addr:postcode": "04391", "addr:street": "\uc774\ud0dc\uc6d0\ub85c", "addr:subdistrict": "\uc774\ud0dc\uc6d0\ub3d9", "amenity": "restaurant", "cuisine": "american", "name": "\ub77c\uc774\ud3ec\uc2a4\ud2b8 \uc774\ud0dc\uc6d01\ud638\uc810", "phone": "+82 2 792 9991", "source": "\uacf5\uacf5\ub370\uc774\ud130\ud3ec\ud138"}}, {"type": "node", "id": 8441111170, "lat": 37.5332495, "lon": 126.997615, "tags": {"addr:city": "\uc11c\uc6b8\ud2b9\ubcc4\uc2dc", "addr:district": "\uc6a9\uc0b0\uad6c", "addr:housenumber": "39", "addr:postcode": "04405", "addr:street": "\uc6b0\uc0ac\ub2e8\ub85c10\uae38", "addr:subdistrict": "\ud55c\ub0a8\ub3d9", "amenity": "restaurant", "cuisine": "turkish", "description": "\ucf00\ubc25\uc804\ubb38\uc810", "name": "\uc300\ub78c", "phone": "+82 2 793 4323", "source": "\uacf5\uacf5\ub370\uc774\ud130\ud3ec\ud138"}}, {"type": "node", "id": 8441111172, "lat": 37.5337573, "lon": 126.9905912, "tags": {"addr:city": "\uc11c\uc6b8\ud2b9\ubcc4\uc2dc", "addr:district": "\uc6a9\uc0b0\uad6c", "addr:housenumber": "62", "addr:postcode": "04391", "addr:street": "\ubcf4\uad11\ub85c59\uae38", "addr:subdistrict": "\uc774\ud0dc\uc6d0\ub3d9", "amenity": "restaurant", "cuisine": "japanese", "level": "2", "name": "\uc2a4\uc2dc\uc774\ud0dc\uc6d0", "phone": "+82 2 794 3937", "source": "\uacf5\uacf5\ub370\uc774\ud130\ud3ec\ud138"}}, {"type": "node", "id": 8441111173, "lat": 37.5339984, "lon": 126.9924716, "tags": {"addr:city": "\uc11c\uc6b8\ud2b9\ubcc4\uc2dc", "addr:district": "\uc6a9\uc0b0\uad6c", "addr:housenumber": "26", "addr:postcode": "04391", "addr:street": "\ubcf4\uad11\ub85c59\uae38", "addr:subdistrict": "\uc774\ud0dc\uc6d0\ub3d9", "amenity": "restaurant", "cuisine": "american", "name": "\ub354\ud478\ub4dc\ud2b8\ub7ed\ucee4\uc2a4", "phone": "+82 2 3785 2015", "source": "\uacf5\uacf5\ub370\uc774\ud130\ud3ec\ud138"}}, {"type": "node", "id": 8441111174, "lat": 37.5338223, "lon": 126.9925599, "tags": {"addr:city": "\uc11c\uc6b8\ud2b9\ubcc4\uc2dc", "addr:district": "\uc6a9\uc0b0\uad6c", "addr:housenumber": "25", "addr:postcode": "04391", "addr:street": "\ubcf4\uad11\ub85c59\uae38", "addr:subdistrict": "\uc774\ud0dc\uc6d0\ub3d9", "amenity": "restaurant", "cuisine": "french", "description": "\ubd84\uc704\uae30\uac00 \uc88b\uc74c", "name": "\ub3c4\ub9ac\ud0a4\uce5c", "phone": "+82 2 790 1553", "source": "\uacf5\uacf5\ub370\uc774\ud130\ud3ec\ud138"}}, {"type": "node", "id": 8441111175, "lat": 37.5340422, "lon": 126.9934967, "tags": {"addr:city": "\uc11c\uc6b8\ud2b9\ubcc4\uc2dc", "addr:district": "\uc6a9\uc0b0\uad6c", "addr:housenumber": "10", "addr:postcode": "04391", "addr:street": "\ubcf4\uad11\ub85c59\uae38", "addr:subdistrict": "\uc774\ud0dc\uc6d0\ub3d9", "amenity": "restaurant", "cuisine": "mexican", "name": "\ud558\uc2dc\uc5d4\ub2e4", "phone": "+82 70 4405 6322", "source": "\uacf5\uacf5\ub370\uc774\ud130\ud3ec\ud138"}}, {"type": "node", "id": 8441111176, "lat": 37.5334476, "lon": 126.99461, "tags": {"addr:city": "\uc11c\uc6b8\ud2b9\ubcc4\uc2dc", "addr:district": "\uc6a9\uc0b0\uad6c", "addr:housenumber": "120", "addr:postcode": "04406", "addr:street": "\ubcf4\uad11\ub85c", "addr:subdistrict": "\uc774\ud0dc\uc6d0\ub3d9", "amenity": "restaurant", "cuisine": "french", "description": "\uc774\ud0dc\uc6d0 \ub300\ud45c \ud504\ub791\uc2a4\ub808\uc2a4\ud1a0\ub791", "level": "1; 2", "name": "\uafb8\ub760\uc790\ub974\ub2f9", "phone": "+82 2 793 5072", "source": "\uacf5\uacf5\ub370\uc774\ud130\ud3ec\ud138"}}, {"type": "node", "id": 8441111177, "lat": 37.5328854, "lon": 126.9946553, "tags": {"addr:city": "\uc11c\uc6b8\ud2b9\ubcc4\uc2dc", "addr:district": "\uc6a9\uc0b0\uad6c", "addr:housenumber": "112-3", "addr:postcode": "04406", "addr:street": "\ubcf4\uad11\ub85c", "addr:subdistrict": "\uc774\ud0dc\uc6d0\ub3d9", "amenity": "restaurant", "cuisine": "american", "description": "\uc774\ud0dc\uc6d0 \ube0c\ub7f0\uce58\ubb38\ud654\ub97c \uc120\ub3c4\ud558\ub294 \ub09c\ubd09\uafbc", "level": "1", "name": "\ub9ac\ubc84\ud2f4", "phone": "+82 2 790 9477", "source": "\uacf5\uacf5\ub370\uc774\ud130\ud3ec\ud138"}}, {"type": "node", "id": 8441111188, "lat": 37.5347343, "lon": 126.9917674, "tags": {"addr:city": "\uc11c\uc6b8\ud2b9\ubcc4\uc2dc", "addr:district": "\uc6a9\uc0b0\uad6c", "addr:housenumber": "5", "addr:postcode": "04351", "addr:street": "\uc774\ud0dc\uc6d0\ub85c19\uae38", "addr:subdistrict": "\uc774\ud0dc\uc6d0\ub3d9", "amenity": "restaurant", "cuisine": "italian", "level": "1", "name": "\ub9c8\uc774\uce58\uce58\uc2a4", "name:en": "my chichi`s", "name:ko": "\ub9c8\uc774\uce58\uce58\uc2a4", "phone": "+82 2 749 7753", "source": "\uacf5\uacf5\ub370\uc774\ud130\ud3ec\ud138"}}, {"type": "node", "id": 8441111192, "lat": 37.5348999, "lon": 126.9917361, "tags": {"addr:city": "\uc11c\uc6b8\ud2b9\ubcc4\uc2dc", "addr:district": "\uc6a9\uc0b0\uad6c", "addr:housenumber": "9", "addr:postcode": "04351", "addr:street": "\uc774\ud0dc\uc6d0\ub85c19\uae38", "addr:subdistrict": "\uc774\ud0dc\uc6d0\ub3d9", "amenity": "restaurant", "cuisine": "mexican", "description": "\ud55c\uad6d\uc778 \uc785\ub9db\uc5d0 \ub9de\ub294 \uba55\uc2dc\ucf54 \uc74c\uc2dd", "level": "1", "name": "\uadf8\ub9b45\ud0c0\ucf54", "phone": "+82 2 790 5549", "source": "\uacf5\uacf5\ub370\uc774\ud130\ud3ec\ud138"}}, {"type": "node", "id": 8441111193, "lat": 37.5347629, "lon": 126.9921253, "tags": {"addr:city": "\uc11c\uc6b8\ud2b9\ubcc4\uc2dc", "addr:district": "\uc6a9\uc0b0\uad6c", "addr:housenumber": "6-4", "addr:postcode": "04350", "addr:street": "\uc774\ud0dc\uc6d0\ub85c19\uae38", "addr:subdistrict": "\uc774\ud0dc\uc6d0\ub3d9", "amenity": "restaurant", "cuisine": "italian", "level": "3", "name": "\ub808\ub4a4\ud50c\ub77c", "phone": "+82 2 797 2228", "source": "\uacf5\uacf5\ub370\uc774\ud130\ud3ec\ud138"}}, {"type": "node", "id": 8441111194, "lat": 37.5347593, "lon": 126.9917587, "tags": {"addr:city": "\uc11c\uc6b8\ud2b9\ubcc4\uc2dc", "addr:district": "\uc6a9\uc0b0\uad6c", "addr:housenumber": "5", "addr:postcode": "04351", "addr:street": "\uc774\ud0dc\uc6d0\ub85c19\uae38", "addr:subdistrict": "\uc774\ud0dc\uc6d0\ub3d9", "amenity": "restaurant", "cuisine": "american", "description": "\uc11c\uc591\uc2dd \ubc84\uac70 & \ud38d", "level": "3", "name": "\uc81c\uc528\ucef4\ud37c\ub2c8", "phone": "+82 2 795 1303", "source": "\uacf5\uacf5\ub370\uc774\ud130\ud3ec\ud138"}}, {"type": "node", "id": 8441111197, "lat": 37.5351054, "lon": 126.9937907, "tags": {"addr:city": "\uc11c\uc6b8\ud2b9\ubcc4\uc2dc", "addr:district": "\uc6a9\uc0b0\uad6c", "addr:housenumber": "26", "addr:postcode": "04350", "addr:street": "\uc774\ud0dc\uc6d0\ub85c27\uac00\uae38", "addr:subdistrict": "\uc774\ud0dc\uc6d0\ub3d9", "amenity": "restaurant", "cuisine": "italian", "level": "-1", "name": "\uadf8\ub9b4", "name:en": "Grill", "name:ko": "\uadf8\ub9b4", "phone": "+82 2 3786 6227", "source": "\uacf5\uacf5\ub370\uc774\ud130\ud3ec\ud138"}}, {"type": "node", "id": 8441111198, "lat": 37.5352207, "lon": 126.993225, "tags": {"addr:city": "\uc11c\uc6b8\ud2b9\ubcc4\uc2dc", "addr:district": "\uc6a9\uc0b0\uad6c", "addr:housenumber": "36", "addr:postcode": "04350", "addr:street": "\uc774\ud0dc\uc6d0\ub85c27\uac00\uae38", "addr:subdistrict": "\uc774\ud0dc\uc6d0\ub3d9", "amenity": "restaurant", "cuisine": "indian", "description": "1984\ub144 \uc778\ub3c4 \ub808\uc2a4\ud1a0\ub791\uc73c\ub85c \uc624\ud508\ud558\uc600\uace0 \uc694\ub9ac\uc0ac\uc640 \uc368\ube59\ud558\ub294 \uc6e8\uc774\ud130 \uc804\uc6d0\uc774 \ud604\uc9c0\uc778\uc73c\ub85c \uc774\uad6d\uc801\uc778 \ub9db\uacfc \ubd84\uc704\uae30\ub97c \uc990\uae38 \uc218 \uc788\ub294 \ub3c4\uc2ec\uc18d\uc5d0\uc11c \ubcf4\uae30\ub4dc\ubb38 \uc720\ub7fd\ud48d \uc57c\uc678\uc815\uc6d0\uc774 \uc788\uc5b4 \ud2b9\ubcc4\ud568\uc744 \ub354 \ub290\ub084 \uc218 \uc788\uc2b5\ub2c8\ub2e4. \ub144\uc911\ubb34\ud734\ub85c \ub9e4\uc8fc \ud1a0,\uc77c\uc694\uc77c\uc5d0\ub294 \uc778\ub3c4 \uc815\ud1b5 \uc2a4\ud398\uc15c \ubdd4\ud398\uac00 \uc6b4\uc601\ub418\uace0 \uc788\uc2b5\ub2c8\ub2e4", "name": "\ubaa8\uae00\uc778\ud130\ub0b4\uc1fc\ub0a0", "phone": "+82 2 796 5501~2", "source": "\uacf5\uacf5\ub370\uc774\ud130\ud3ec\ud138"}}, {"type": "node", "id": 8441111199, "lat": 37.5348062, "lon": 126.9927951, "tags": {"addr:city": "\uc11c\uc6b8\ud2b9\ubcc4\uc2dc", "addr:district": "\uc6a9\uc0b0\uad6c", "addr:housenumber": "6", "addr:postcode": "04350", "addr:street": "\uc774\ud0dc\uc6d0\ub85c23\uae38", "addr:subdistrict": "\uc774\ud0dc\uc6d0\ub3d9", "amenity": "restaurant", "cuisine": "japanese;thai", "description": "\ud64d\uc11d\ucc9c\uc740 \ub9db\uc788\ub2e4.", "level": "2;3", "name": "\ub9c8\uc774\ub204\ub4e4", "name:ko": "\ub9c8\uc774\ub204\ub4e4", "phone": "+82 2 794 8990", "source": "\uacf5\uacf5\ub370\uc774\ud130\ud3ec\ud138"}}, {"type": "node", "id": 8441111201, "lat": 37.5351343, "lon": 126.9948995, "tags": {"addr:city": "\uc11c\uc6b8\ud2b9\ubcc4\uc2dc", "addr:district": "\uc6a9\uc0b0\uad6c", "addr:housenumber": "8", "addr:postcode": "04350", "addr:street": "\uc774\ud0dc\uc6d0\ub85c27\uac00\uae38", "addr:subdistrict": "\uc774\ud0dc\uc6d0\ub3d9", "amenity": "restaurant", "cuisine": "french;italian", "description": "\uc77c\ubcf8\uc2dd \ud504\ub80c\uce58&\uc774\ud0c8\ub9ac\uc544\uc758 \uace0\uae09 \uba54\ub274\ub97c \ud55c\ubc88\uc5d0 \ub9db\ubcfc\uc218 \uc788\ub2e4.", "level": "0", "name": "\uc624\ub808\ub178", "phone": "+82 2 794 0055", "source": "\uacf5\uacf5\ub370\uc774\ud130\ud3ec\ud138"}}, {"type": "node", "id": 8441111206, "lat": 37.5350262, "lon": 126.9956146, "tags": {"addr:city": "\uc11c\uc6b8\ud2b9\ubcc4\uc2dc", "addr:district": "\uc6a9\uc0b0\uad6c", "addr:housenumber": "6", "addr:postcode": "04349", "addr:street": "\uc774\ud0dc\uc6d0\ub85c27\uae38", "addr:subdistrict": "\uc774\ud0dc\uc6d0\ub3d9", "amenity": "restaurant", "cuisine": "japanese;italian", "description": "\uc2a4\ud14c\uc774\ud06c, \uc774\uc790\uce74\uc57c, \ub9db\uc9d1", "level": "5", "name": "\ud0d1\ud38d\uc564\uc774\uc790\uce74\uc57c", "phone": "+82 2 794 9919", "source": "\uacf5\uacf5\ub370\uc774\ud130\ud3ec\ud138"}}, {"type": "node", "id": 8441111207, "lat": 37.536192, "lon": 126.9993666, "tags": {"addr:city": "\uc11c\uc6b8\ud2b9\ubcc4\uc2dc", "addr:district": "\uc6a9\uc0b0\uad6c", "addr:housenumber": "4", "addr:postcode": "04348", "addr:street": "\uc774\ud0dc\uc6d0\ub85c45\uae38", "addr:subdistrict": "\ud55c\ub0a8\ub3d9", "amenity": "restaurant", "cuisine": "chinese", "description": "\ub9c8\ub9ac\uc0f9\ub9ac", "level": "1; 2", "name": "\ub9c8\ub77c", "phone": "+82 2 794 5559", "source": "\uacf5\uacf5\ub370\uc774\ud130\ud3ec\ud138"}}, {"type": "node", "id": 8441122161, "lat": 37.5345073, "lon": 126.9965198, "tags": {"addr:city": "\uc11c\uc6b8\ud2b9\ubcc4\uc2dc", "addr:district": "\uc6a9\uc0b0\uad6c", "addr:housenumber": "204", "addr:street": "\uc774\ud0dc\uc6d0\ub85c", "amenity": "restaurant", "cuisine": "turkish", "name": "\ucf00\ub974\ubc18\ubca0\uc774\ucee4\ub9ac", "phone": "+82 2 790 5585", "source": "\uacf5\uacf5\ub370\uc774\ud130\ud3ec\ud138"}}, {"type": "node", "id": 8441122162, "lat": 37.5344208, "lon": 126.9961668, "tags": {"addr:city": "\uc11c\uc6b8\ud2b9\ubcc4\uc2dc", "addr:district": "\uc6a9\uc0b0\uad6c", "addr:housenumber": "200", "addr:postcode": "04405", "addr:street": "\uc774\ud0dc\uc6d0\ub85c", "addr:subdistrict": "\uc774\ud0dc\uc6d0\ub3d9", "amenity": "restaurant", "cuisine": "italian", "name": "\ub77c\uadf8\ub9b4\ub9ac\uc544 \uc774\ud0dc\uc6d0\uc810", "phone": "+82 2 790 9313", "source": "\uacf5\uacf5\ub370\uc774\ud130\ud3ec\ud138"}}, {"type": "node", "id": 8441122163, "lat": 37.5348352, "lon": 126.9959178, "tags": {"addr:city": "\uc11c\uc6b8\ud2b9\ubcc4\uc2dc", "addr:district": "\uc6a9\uc0b0\uad6c", "addr:housenumber": "197", "addr:street": "\uc774\ud0dc\uc6d0\ub85c", "amenity": "restaurant", "cuisine": "turkish", "name": "\ud398\ud2b8\ub77c \ud330\ub9ac\uc2a4", "name:en": "PETRA PALACE", "name:ko": "\ud398\ud2b8\ub77c \ud330\ub9ac\uc2a4", "phone": "+82 2 749 9329", "source": "\uacf5\uacf5\ub370\uc774\ud130\ud3ec\ud138"}}, {"type": "node", "id": 8441122164, "lat": 37.5342621, "lon": 126.9949041, "tags": {"addr:city": "\uc11c\uc6b8\ud2b9\ubcc4\uc2dc", "addr:district": "\uc6a9\uc0b0\uad6c", "addr:housenumber": "188-1", "addr:street": "\uc774\ud0dc\uc6d0\ub85c", "amenity": "restaurant", "cuisine": "turkish", "name": "\ud30c\uc0e4\ud130\ud0a4\ub808\uc2a4\ud1a0\ub791", "phone": "+82 2 766 8445", "source": "\uacf5\uacf5\ub370\uc774\ud130\ud3ec\ud138"}}, {"type": "node", "id": 8441122165, "lat": 37.5331594, "lon": 126.9959587, "tags": {"addr:city": "\uc11c\uc6b8\ud2b9\ubcc4\uc2dc", "addr:district": "\uc6a9\uc0b0\uad6c", "addr:housenumber": "7", "addr:postcode": "04405", "addr:street": "\uc6b0\uc0ac\ub2e8\ub85c10\uae38", "addr:subdistrict": "\uc774\ud0dc\uc6d0\ub3d9", "amenity": "restaurant", "cuisine": "indonesian;egyptian", "level": "1", "name": "\uc528\ud2f0\uc0ac\ub77c", "phone": "+82 2 793 5416", "source": "\uacf5\uacf5\ub370\uc774\ud130\ud3ec\ud138"}}, {"type": "node", "id": 8441122168, "lat": 37.5332713, "lon": 126.9964605, "tags": {"addr:city": "\uc11c\uc6b8\ud2b9\ubcc4\uc2dc", "addr:district": "\uc6a9\uc0b0\uad6c", "addr:housenumber": "15", "addr:postcode": "04405", "addr:street": "\uc6b0\uc0ac\ub2e8\ub85c10\uae38", "addr:subdistrict": "\uc774\ud0dc\uc6d0\ub3d9", "amenity": "restaurant", "cuisine": "lebanese", "description": "Beef or Lamb\ub97c \ucd94\ucc9c\ub78c", "level": "1", "name": "\uc54c\uc544\uc9c0\uc2a4", "name:en": "ALAZIZ", "name:ko": "\uc54c\uc544\uc9c0\uc2a4", "phone": "+82 2 790 9865", "source": "\uacf5\uacf5\ub370\uc774\ud130\ud3ec\ud138"}}, {"type": "node", "id": 8441122169, "lat": 37.5332639, "lon": 126.9964203, "tags": {"addr:city": "\uc11c\uc6b8\ud2b9\ubcc4\uc2dc", "addr:district": "\uc6a9\uc0b0\uad6c", "addr:housenumber": "15", "addr:postcode": "04405", "addr:street": "\uc6b0\uc0ac\ub2e8\ub85c10\uae38", "addr:subdistrict": "\uc774\ud0dc\uc6d0\ub3d9", "amenity": "restaurant", "cuisine": "pakistani", "level": "1", "name": "AL- HOOR", "phone": "+82 2 792 7155", "source": "\uacf5\uacf5\ub370\uc774\ud130\ud3ec\ud138"}}, {"type": "node", "id": 8441122170, "lat": 37.533199, "lon": 126.9962347, "tags": {"addr:city": "\uc11c\uc6b8\ud2b9\ubcc4\uc2dc", "addr:district": "\uc6a9\uc0b0\uad6c", "addr:housenumber": "11", "addr:postcode": "04405", "addr:street": "\uc6b0\uc0ac\ub2e8\ub85c10\uae38", "addr:subdistrict": "\uc774\ud0dc\uc6d0\ub3d9", "amenity": "restaurant", "cuisine": "indian;pakistani", "description": "\ud0c4\ub450\ub9ac \ubc14\ube44\ud050\ub97c \ucd94\ucc9c", "diet:halal": "yes", "level": "1", "name": "\ubd04\ubca0\uadf8\ub9b4", "phone": "+82 2 792 7155", "source": "\uacf5\uacf5\ub370\uc774\ud130\ud3ec\ud138"}}, {"type": "node", "id": 8441122171, "lat": 37.5338837, "lon": 126.9947231, "tags": {"addr:city": "\uc11c\uc6b8\ud2b9\ubcc4\uc2dc", "addr:district": "\uc6a9\uc0b0\uad6c", "addr:housenumber": "10", "addr:postcode": "04406", "addr:street": "\ubcf4\uad11\ub85c60\uae38", "addr:subdistrict": "\uc774\ud0dc\uc6d0\ub3d9", "amenity": "restaurant", "cuisine": "persian", "name": "\ud398\ub974\uc2dc\uc548\ub79c\ub4dc", "phone": "+82 2 797 7109", "source": "\uacf5\uacf5\ub370\uc774\ud130\ud3ec\ud138"}}, {"type": "node", "id": 8441122172, "lat": 37.5343523, "lon": 126.9954924, "tags": {"addr:city": "\uc11c\uc6b8\ud2b9\ubcc4\uc2dc", "addr:district": "\uc6a9\uc0b0\uad6c", "addr:housenumber": "47", "addr:postcode": "04406", "addr:street": "\uc6b0\uc0ac\ub2e8\ub85c", "addr:subdistrict": "\uc774\ud0dc\uc6d0\ub3d9", "amenity": "restaurant", "cuisine": "italian", "name": "\ud53c\uc790\ub808\ubcfc\ub8e8\uc158", "name:ko": "\ud53c\uc790\ub808\ubcfc\ub8e8\uc158", "phone": "+82 2 797 8290", "source": "\uacf5\uacf5\ub370\uc774\ud130\ud3ec\ud138"}}, {"type": "node", "id": 8441122173, "lat": 37.5339522, "lon": 126.995764, "tags": {"addr:city": "\uc11c\uc6b8\ud2b9\ubcc4\uc2dc", "addr:district": "\uc6a9\uc0b0\uad6c", "addr:housenumber": "42", "addr:postcode": "04405", "addr:street": "\uc6b0\uc0ac\ub2e8\ub85c", "addr:subdistrict": "\uc774\ud0dc\uc6d0\ub3d9", "amenity": "restaurant", "cuisine": "indian;turkish", "description": "\ub2e4\uc591\ud55c \uba54\ub274\ub97c \uc811\ud560 \uc218 \uc788\uace0 \uc774\uc2ac\ub78c\ubd84\ub4e4\uc774 \ubbff\uace0 \uba39\uc744 \uc218 \uc788\ub294 \ud560\ub784 \ub808\uc2a4\ud1a0\ub791", "name": "\ud3ec\ub79c\ub808\uc2a4\ud1a0\ub791", "name:en": "FOREIGN RESTAURANT", "name:ko": "\ud3ec\ub79c\ub808\uc2a4\ud1a0\ub791", "phone": "+82 2 794 9292", "source": "\uacf5\uacf5\ub370\uc774\ud130\ud3ec\ud138"}}, {"type": "node", "id": 8441122174, "lat": 37.5332278, "lon": 126.9956916, "tags": {"addr:city": "\uc11c\uc6b8\ud2b9\ubcc4\uc2dc", "addr:district": "\uc6a9\uc0b0\uad6c", "addr:housenumber": "34", "addr:postcode": "04405", "addr:street": "\uc6b0\uc0ac\ub2e8\ub85c", "addr:subdistrict": "\uc774\ud0dc\uc6d0\ub3d9", "amenity": "restaurant", "cuisine": "pakistani", "level": "-1", "name": "(\uc8fc)\uc6b0\uc2a4\ub9c8\ub2c8\uc544\uc778\ud130\ub0b4\uc154\ub0a0\ub808\uc2a4\ud1a0\ub791", "phone": "+82 2 798 7155", "source": "\uacf5\uacf5\ub370\uc774\ud130\ud3ec\ud138"}}, {"type": "node", "id": 8441122177, "lat": 37.5337286, "lon": 126.9926821, "tags": {"addr:city": "\uc11c\uc6b8\ud2b9\ubcc4\uc2dc", "addr:district": "\uc6a9\uc0b0\uad6c", "addr:housenumber": "7-2", "addr:postcode": "04391", "addr:street": "\uc774\ud0dc\uc6d0\ub85c20\uac00\uae38", "addr:subdistrict": "\uc774\ud0dc\uc6d0\ub3d9", "amenity": "restaurant", "cuisine": "american", "description": "\ud1b5\ud1b5\ud55c \uc0c8\uc6b0\uac00 \ud1b5\ucc44\ub85c \ub4e4\uc5b4\uac04 \uc544\uba54\ub9ac\uce78 \uc2a4\ud0c0\uc77c \ub864", "level": "3", "name": "\ud53c\uc154\ub9e8\uc988", "phone": "+82 2 790 9544", "source": "\uacf5\uacf5\ub370\uc774\ud130\ud3ec\ud138"}}, {"type": "node", "id": 8441122178, "lat": 37.5347376, "lon": 126.9919552, "tags": {"addr:city": "\uc11c\uc6b8\ud2b9\ubcc4\uc2dc", "addr:district": "\uc6a9\uc0b0\uad6c", "addr:housenumber": "6", "addr:postcode": "04350", "addr:street": "\uc774\ud0dc\uc6d0\ub85c19\uae38", "addr:subdistrict": "\uc774\ud0dc\uc6d0\ub3d9", "amenity": "restaurant", "cuisine": "british;italian", "description": "\ucf00\uc8fc\uc5bc\ub2e4\uc774\ub2dd\uc744 \ubaa8\ud1a0\ub85c\ud55c \ucf54\ud2f0\uc9c0 \ub808\uc2a4\ud1a0\ub791 & \uce74\ud398", "level": "1", "name": "\ucf54\ud0c0\uc9c0\uce74\ud398\ubcf4\ub9ac", "phone": "+82 2 6012 3383", "source": "\uacf5\uacf5\ub370\uc774\ud130\ud3ec\ud138"}}, {"type": "node", "id": 8441122179, "lat": 37.5354837, "lon": 126.9916184, "tags": {"addr:city": "\uc11c\uc6b8\ud2b9\ubcc4\uc2dc", "addr:district": "\uc6a9\uc0b0\uad6c", "addr:housenumber": "23", "addr:postcode": "04351", "addr:street": "\uc774\ud0dc\uc6d0\ub85c19\uae38", "addr:subdistrict": "\uc774\ud0dc\uc6d0\ub3d9", "amenity": "restaurant", "cuisine": "american", "description": "\ub9c8\uce74\ub85c\ub2c8 \uc564 \uce58\uc988\ub97c 6\uac00\uc9c0 \ub9db\uc73c\ub85c \ub9e5\uc8fc\uc640 \uc640\uc778\uc744 \ud568\uaed8 \uc990\uae38 \uc218 \uc788\ub294 \uacf3", "level": "1", "name": "\ub9e5.\uc564", "phone": "+82 2 790 5447", "source": "\uacf5\uacf5\ub370\uc774\ud130\ud3ec\ud138"}}, {"type": "node", "id": 8441122180, "lat": 37.5350981, "lon": 126.9921932, "tags": {"addr:city": "\uc11c\uc6b8\ud2b9\ubcc4\uc2dc", "addr:district": "\uc6a9\uc0b0\uad6c", "addr:housenumber": "54-4", "addr:postcode": "04350", "addr:street": "\uc774\ud0dc\uc6d0\ub85c27\uac00\uae38", "addr:subdistrict": "\uc774\ud0dc\uc6d0\ub3d9", "amenity": "restaurant", "cuisine": "thai", "description": "\ud55c\uad6d \uc18d \ud504\ub791\uc2a4\uac70\ub9ac \uc0dd\uc5b4\uac70\uc2a4\ud2f4\uc5d0\uc11c \uc120\ubcf4\uc774\ub294 \uc544\uc2dc\uc548 \ud478\ub4dc", "level": "-1", "name": "\uc0dd\uc5b4\uac70\uc2a4\ud2f4", "phone": "+82 2 790 5447", "source": "\uacf5\uacf5\ub370\uc774\ud130\ud3ec\ud138"}}, {"type": "node", "id": 8441122181, "lat": 37.5348495, "lon": 126.9923425, "tags": {"addr:city": "\uc11c\uc6b8\ud2b9\ubcc4\uc2dc", "addr:district": "\uc6a9\uc0b0\uad6c", "addr:housenumber": "51", "addr:postcode": "04350", "addr:street": "\uc774\ud0dc\uc6d0\ub85c27\uac00\uae38", "addr:subdistrict": "\uc774\ud0dc\uc6d0\ub3d9", "amenity": "restaurant", "cuisine": "spanish", "description": "\uc2a4\ud398\uc778 \ud5e4\ub4dc\uc250\ud504\uac00 \ucd1d\uad04\ud558\ub294 \uc624\ud508 \ud0a4\uce5c \ud615\ud0dc\uc758 \ub808\uc2a4\ud1a0\ub791\uacfc \uc640\uc778 \ub514\uc2a4\ud39c\uc11c\uac00 \uc788\ub294 \ub77c\uc6b4\uc9c0\uc758 \ub9e4\uc7a5", "level": "1", "name": "\ubbf8\uce74\uc0ac", "phone": "+82 2 790 0063", "source": "\uacf5\uacf5\ub370\uc774\ud130\ud3ec\ud138"}}, {"type": "node", "id": 8441122182, "lat": 37.5348639, "lon": 126.9925462, "tags": {"addr:city": "\uc11c\uc6b8\ud2b9\ubcc4\uc2dc", "addr:district": "\uc6a9\uc0b0\uad6c", "addr:housenumber": "49", "addr:postcode": "04350", "addr:street": "\uc774\ud0dc\uc6d0\ub85c27\uac00\uae38", "addr:subdistrict": "\uc774\ud0dc\uc6d0\ub3d9", "amenity": "restaurant", "check_date": "2024-01-17", "cocktails": "yes", "cuisine": "spanish", "description": "\ud0c0\ud30c\uc2a4 \uc804\ubb38\uc810. \uc2a4\ud398\ub2c8\uc26c \ubc14", "drink:beer": "yes", "drink:wine": "yes", "internet_access": "wlan", "internet_access:fee": "customers", "level": "1", "name": "\ud0c0\ud30c\uc2a4\ubc14", "name:en": "Tapas Bar", "phone": "+82 2 790 0799", "source": "\uacf5\uacf5\ub370\uc774\ud130\ud3ec\ud138"}}, {"type": "node", "id": 8441122183, "lat": 37.5348279, "lon": 126.9928992, "tags": {"addr:city": "\uc11c\uc6b8\ud2b9\ubcc4\uc2dc", "addr:district": "\uc6a9\uc0b0\uad6c", "addr:housenumber": "43", "addr:postcode": "04350", "addr:street": "\uc774\ud0dc\uc6d0\ub85c27\uac00\uae38", "addr:subdistrict": "\uc774\ud0dc\uc6d0\ub3d9", "amenity": "restaurant", "cuisine": "italian", "description": "\uc774\ud0c8\ub9ac\uc544 \uc804\ubb38 \uc74c\uc2dd\uc810", "level": "1", "name": "\uc62c\ub4dc\uc2a4\ud0e0", "phone": "+82 2 793 3433", "source": "\uacf5\uacf5\ub370\uc774\ud130\ud3ec\ud138"}}, {"type": "node", "id": 8441122184, "lat": 37.5348675, "lon": 126.9930033, "tags": {"addr:city": "\uc11c\uc6b8\ud2b9\ubcc4\uc2dc", "addr:district": "\uc6a9\uc0b0\uad6c", "addr:housenumber": "41", "addr:postcode": "04350", "addr:street": "\uc774\ud0dc\uc6d0\ub85c27\uac00\uae38", "addr:subdistrict": "\uc774\ud0dc\uc6d0\ub3d9", "amenity": "restaurant", "cuisine": "brazilian", "description": "\ube0c\ub77c\uc9c8 \uc804\ud1b5 \ubc14\ubca0\ud050\uc694\ub9ac\ub97c \ubb34\ud55c\uc73c\ub85c \uc990\uae30\uc138\uc694", "level": "1; 2", "name": "(\uc8fc)\ucf54\ud30c\uce74\ubc14\ub098\uadf8\ub9b4", "phone": "+82 2 796 1660", "source": "\uacf5\uacf5\ub370\uc774\ud130\ud3ec\ud138"}}, {"type": "node", "id": 8441122185, "lat": 37.5348747, "lon": 126.9930983, "tags": {"addr:city": "\uc11c\uc6b8\ud2b9\ubcc4\uc2dc", "addr:district": "\uc6a9\uc0b0\uad6c", "addr:housenumber": "37", "addr:postcode": "04350", "addr:street": "\uc774\ud0dc\uc6d0\ub85c27\uac00\uae38", "addr:subdistrict": "\uc774\ud0dc\uc6d0\ub3d9", "amenity": "restaurant", "cuisine": "american", "description": "The original chicago pizza is O.N.L.Y found here", "level": "4; 5", "name": "\uc2dc\uce74\uace0", "phone": "+82 2 794 8120", "source": "\uacf5\uacf5\ub370\uc774\ud130\ud3ec\ud138"}}, {"type": "node", "id": 8441122187, "lat": 37.5340385, "lon": 126.9915008, "tags": {"addr:city": "\uc11c\uc6b8\ud2b9\ubcc4\uc2dc", "addr:district": "\uc6a9\uc0b0\uad6c", "addr:housenumber": "2-10", "addr:postcode": "04391", "addr:street": "\uc774\ud0dc\uc6d0\ub85c20\uae38", "addr:subdistrict": "\uc774\ud0dc\uc6d0\ub3d9", "amenity": "restaurant", "cuisine": "nigerian", "description": "\uc11c\uc544\ud504\ub9ac\uce74 \uc804\ud1b5\uc74c\uc2dd", "level": "2", "name": "\ud574\ud53c\ud648\ub808\uc2a4\ud1a0\ub791", "name:en": "Happy Home Restaurant", "name:ko": "\ud574\ud53c\ud648\ub808\uc2a4\ud1a0\ub791", "phone": "+82 2 797 3185", "source": "\uacf5\uacf5\ub370\uc774\ud130\ud3ec\ud138"}}, {"type": "node", "id": 8441122188, "lat": 37.5335845, "lon": 126.9929219, "tags": {"addr:city": "\uc11c\uc6b8\ud2b9\ubcc4\uc2dc", "addr:district": "\uc6a9\uc0b0\uad6c", "addr:housenumber": "13", "addr:postcode": "04391", "addr:street": "\uc774\ud0dc\uc6d0\ub85c20\uac00\uae38", "addr:subdistrict": "\uc774\ud0dc\uc6d0\ub3d9", "amenity": "restaurant", "cuisine": "thai", "description": "\ud0dc\uad6d \uc720\uba85 \ud638\ud154 \uc870\ub9ac\uc7a5\ubd84\uaed8 \uc74c\uc2dd\uc744 \uc804\uc218\ubc1b\uc544 \ud0dc\uad6d \ub9db\uc5d0 \uac00\uae5d\uac8c \uc5f0\ucd9c. \uaf43\uac8c\ucee4\ub9ac \ub4f1. \ud55c\uad6d\uc778 \uc785\ub9db\uc744 \uc0ac\ub85c\uc7a1\ub294 \uc74c\uc2dd\uc774 \ub9ce\uc2b5\ub2c8\ub2e4.", "level": "1", "name": "\uce74\uc624\uc0b0", "phone": "+82 2 790 7029", "source": "\uacf5\uacf5\ub370\uc774\ud130\ud3ec\ud138"}}, {"type": "node", "id": 8441122201, "lat": 37.5351775, "lon": 126.9945827, "tags": {"addr:city": "\uc11c\uc6b8\ud2b9\ubcc4\uc2dc", "addr:district": "\uc6a9\uc0b0\uad6c", "addr:housenumber": "12", "addr:postcode": "04350", "addr:street": "\uc774\ud0dc\uc6d0\ub85c27\uac00\uae38", "addr:subdistrict": "\uc774\ud0dc\uc6d0\ub3d9", "amenity": "restaurant", "cuisine": "mexican", "description": "\uba55\uc2dc\ucf54 \uc804\ubb38\uc810 \ud38d\uc564\uadf8\ub9b4 \ud1a0\ub9c8\ud2f8\ub85c", "name": "\ud1a0\ub9c8\ud2f8\ub85c\uc774\ud0dc\uc6d0", "phone": "+82 2 794 9225", "source": "\uacf5\uacf5\ub370\uc774\ud130\ud3ec\ud138"}}, {"type": "node", "id": 8441122213, "lat": 37.5345212, "lon": 126.9884731, "tags": {"addr:city": "\uc11c\uc6b8\ud2b9\ubcc4\uc2dc", "addr:district": "\uc6a9\uc0b0\uad6c", "addr:housenumber": "47", "addr:postcode": "04351", "addr:street": "\ub179\uc0ac\ud3c9\ub300\ub85c40\uae38", "addr:subdistrict": "\uc774\ud0dc\uc6d0\ub3d9", "amenity": "restaurant", "cuisine": "american", "description": "\ubbf8\uad6d\uc2dd \uc804\ucd1d \ud6c8\uc5f0 \ubc14\ube44\ud050", "level": "2", "name": "\ub9e4\ub2c8\uba40\uc2a4\ubaa8\ud06c\ud558\uc6b0\uc2a4", "phone": "+82 2 790 6788", "source": "\uacf5\uacf5\ub370\uc774\ud130\ud3ec\ud138"}}, {"type": "node", "id": 8441122430, "lat": 37.534875, "lon": 126.9931204, "tags": {"addr:city": "\uc11c\uc6b8\ud2b9\ubcc4\uc2dc", "addr:district": "\uc6a9\uc0b0\uad6c", "addr:housenumber": "37", "addr:postcode": "04350", "addr:street": "\uc774\ud0dc\uc6d0\ub85c27\uac00\uae38", "addr:subdistrict": "\uc774\ud0dc\uc6d0\ub3d9", "amenity": "restaurant", "cuisine": "mexican", "description": "\ud55c\uad6d\uc5d0\uc11c \uc27d\uac8c \uc811\ud558\uc9c0 \ubabb \ud560 \uc5ec\ub7ec\uac00\uc9c0 \uba55\uc2dc\ucf54 \uc74c\uc2dd\ub4e4\uc774 \uc900\ube44\ub418\uc5b4 \uc788\uc2b5\ub2c8\ub2e4", "level": "3", "name": "\ub85c\uc2a4\uc544\ubbf8\uace0\uc2a4", "name:en": "Los Amigos", "name:ko": "\ub85c\uc2a4\uc544\ubbf8\uace0\uc2a4", "phone": "+82 2 795 9711", "source": "\uacf5\uacf5\ub370\uc774\ud130\ud3ec\ud138"}}, {"type": "node", "id": 8441122436, "lat": 37.534695, "lon": 126.9981709, "tags": {"addr:city": "\uc11c\uc6b8\ud2b9\ubcc4\uc2dc", "addr:district": "\uc6a9\uc0b0\uad6c", "addr:housenumber": "216", "addr:postcode": "04404", "addr:street": "\uc774\ud0dc\uc6d0\ub85c", "addr:subdistrict": "\ud55c\ub0a8\ub3d9", "amenity": "restaurant", "cuisine": "spanish", "name": "\uc2a4\ud398\uc778\ud074\ub7fd", "phone": "+82 2 795 1118", "source": "\uacf5\uacf5\ub370\uc774\ud130\ud3ec\ud138"}}, {"type": "node", "id": 8441122437, "lat": 37.534671, "lon": 126.9980797, "tags": {"addr:city": "\uc11c\uc6b8\ud2b9\ubcc4\uc2dc", "addr:district": "\uc6a9\uc0b0\uad6c", "addr:housenumber": "216", "addr:postcode": "04404", "addr:street": "\uc774\ud0dc\uc6d0\ub85c", "addr:subdistrict": "\ud55c\ub0a8\ub3d9", "amenity": "restaurant", "cuisine": "italian", "name": "\uc548\ub3c4", "name:en": "ANDO", "name:ko": "\uc548\ub3c4", "phone": "+82 2 749 0619", "source": "\uacf5\uacf5\ub370\uc774\ud130\ud3ec\ud138"}}, {"type": "node", "id": 8441122438, "lat": 37.5346875, "lon": 126.9981354, "tags": {"addr:city": "\uc11c\uc6b8\ud2b9\ubcc4\uc2dc", "addr:district": "\uc6a9\uc0b0\uad6c", "addr:housenumber": "216", "addr:postcode": "04404", "addr:street": "\uc774\ud0dc\uc6d0\ub85c", "addr:subdistrict": "\ud55c\ub0a8\ub3d9", "amenity": "restaurant", "cuisine": "american", "name": "\ud22c\ube0c\ub85c\uc988", "phone": "+82 2 790 0610", "source": "\uacf5\uacf5\ub370\uc774\ud130\ud3ec\ud138"}}, {"type": "node", "id": 8441122439, "lat": 37.5346082, "lon": 126.9979046, "tags": {"addr:city": "\uc11c\uc6b8\ud2b9\ubcc4\uc2dc", "addr:district": "\uc6a9\uc0b0\uad6c", "addr:housenumber": "214-1", "addr:street": "\uc774\ud0dc\uc6d0\ub85c", "amenity": "restaurant", "cuisine": "french", "name": "\ube0c\ub798\ub4dc\uc1fc", "name:en": "Bread Show", "name:ko": "\ube0c\ub798\ub4dc\uc1fc", "phone": "+82 2 792 2233", "source": "\uacf5\uacf5\ub370\uc774\ud130\ud3ec\ud138"}}, {"type": "node", "id": 8441122440, "lat": 37.5346114, "lon": 126.9979341, "tags": {"addr:city": "\uc11c\uc6b8\ud2b9\ubcc4\uc2dc", "addr:district": "\uc6a9\uc0b0\uad6c", "addr:housenumber": "214-1", "addr:street": "\uc774\ud0dc\uc6d0\ub85c", "amenity": "restaurant", "cuisine": "thai", "name": "\ud0c0\uc774\uc624\ud0a4\ub4dc", "phone": "+82 2 795 3338", "source": "\uacf5\uacf5\ub370\uc774\ud130\ud3ec\ud138"}}, {"type": "node", "id": 8441122441, "lat": 37.5346159, "lon": 126.9979696, "tags": {"addr:city": "\uc11c\uc6b8\ud2b9\ubcc4\uc2dc", "addr:district": "\uc6a9\uc0b0\uad6c", "addr:housenumber": "214-1", "addr:street": "\uc774\ud0dc\uc6d0\ub85c", "amenity": "restaurant", "cuisine": "lebanese", "description": "\uc911\ub3d9 \ub808\ubc14\ub17c \uc74c\uc2dd\uc744 \uae30\ucd08\ub85c\ud55c \uac74\uac15\ud55c \ub290\ub08c\uc758 \uc74c\uc2dd", "name": "\ud5c8\uba38\uc2a4\ud0a4\uce5c", "phone": "+82 2 790 7922", "source": "\uacf5\uacf5\ub370\uc774\ud130\ud3ec\ud138"}}, {"type": "node", "id": 8441122443, "lat": 37.5348352, "lon": 126.9962075, "tags": {"addr:city": "\uc11c\uc6b8\ud2b9\ubcc4\uc2dc", "addr:district": "\uc6a9\uc0b0\uad6c", "addr:housenumber": "199", "addr:postcode": "04349", "addr:street": "\uc774\ud0dc\uc6d0\ub85c", "addr:subdistrict": "\uc774\ud0dc\uc6d0\ub3d9", "amenity": "restaurant", "cuisine": "italian", "indoor_seating": "yes", "name": "\ud53c\uc790\ubb34\ucabc", "name:en": "pizza muzzo", "name:ko": "\ud53c\uc790\ubb34\ucabc", "outdoor_seating": "no", "phone": "+82 2 795 6164", "source": "\uacf5\uacf5\ub370\uc774\ud130\ud3ec\ud138"}}, {"type": "node", "id": 8441122444, "lat": 37.5356282, "lon": 126.9994931, "tags": {"addr:city": "\uc11c\uc6b8\ud2b9\ubcc4\uc2dc", "addr:district": "\uc6a9\uc0b0\uad6c", "addr:housenumber": "232", "addr:postcode": "04400", "addr:street": "\uc774\ud0dc\uc6d0\ub85c", "addr:subdistrict": "\ud55c\ub0a8\ub3d9", "amenity": "restaurant", "cuisine": "japanese", "description": "\uc77c\ubcf8 \uc0ac\ub204\ub07c\uc6b0\ub3d9 \uc804\uad6d\ub300\ud68c\uc5d0\uc11c 1\ub4f1 \uc218\uc0c1", "name": "\ub2c8\uc2dc\ud0a4", "name:en": "NISIKI", "name:ko": "\ub2c8\uc2dc\ud0a4", "phone": "+82 2 749 0446", "source": "\uacf5\uacf5\ub370\uc774\ud130\ud3ec\ud138"}},