{"version": 0.6, "generator": "Overpass API 0.7.62.11 87bfad18", "osm3s": {"timestamp_osm_base": "2026-05-27T04:06:48Z", "copyright": "The data included in this document is from www.openstreetmap.org. The data is made available under ODbL."}, "elements": [{"type": "node", "id": 3636228303, "lat": 37.5480987, "lon": 126.9221977}, {"type": "node", "id": 3636228304, "lat": 37.5480285, "lon": 126.9222626}, {"type": "node", "id": 3636228305, "lat": 37.54808, "lon": 126.9223511}, {"type": "node", "id": 3636228306, "lat": 37.5481099, "lon": 126.9223235}, {"type": "node", "id": 3636228307, "lat": 37.5480947, "lon": 126.9222974}, {"type": "node", "id": 3636228308, "lat": 37.5481244, "lon": 126.92227}, {"type": "node", "id": 3636228309, "lat": 37.5481134, "lon": 126.9222511}, {"type": "node", "id": 3636228310, "lat": 37.5481241, "lon": 126.9222413}, {"type": "node", "id": 3636284409, "lat": 37.5483105, "lon": 126.9219847}, {"type": "node", "id": 3636284410, "lat": 37.5482193, "lon": 126.9220537}, {"type": "node", "id": 3636284411, "lat": 37.5482432, "lon": 126.9220944}, {"type": "node", "id": 3636284412, "lat": 37.548267, "lon": 126.9220679}, {"type": "node", "id": 3636284413, "lat": 37.5482839, "lon": 126.9221139}, {"type": "node", "id": 3636284414, "lat": 37.5483596, "lon": 126.9220856}, {"type": "node", "id": 4161316085, "lat": 37.5468714, "lon": 126.9229823, "tags": {"description": "BMX shop", "name": "Flybikes", "shop": "bicycle", "website": "www.flybikesbmx.com"}}, {"type": "node", "id": 4175973554, "lat": 37.5483825, "lon": 126.9205903, "tags": {"addr:city": "\uc11c\uc6b8\ud2b9\ubcc4\uc2dc", "addr:district": "\ub9c8\ud3ec\uad6c", "addr:housenumber": "67-13", "addr:postcode": "04049", "addr:street": "\ub3c5\ub9c9\ub85c", "addr:subdistrict": "\uc0c1\uc218\ub3d9", "branch": "\ud64d\ub300\uc810", "name": "\ud2b8\ub9ac\uc2dc\ud074\ub85c", "shop": "optician"}}, {"type": "node", "id": 4175973555, "lat": 37.5481826, "lon": 126.9207781, "tags": {"addr:city": "\uc11c\uc6b8\ud2b9\ubcc4\uc2dc", "addr:district": "\ub9c8\ud3ec\uad6c", "addr:housenumber": "67-9", "addr:postcode": "04049", "addr:street": "\ub3c5\ub9c9\ub85c", "addr:subdistrict": "\uc0c1\uc218\ub3d9", "amenity": "restaurant", "cuisine": "beef_bowl;barbecue", "name": "\ud64d\ub300\uac1c\ubbf8", "opening_hours": "Mo-Su 11:30-22:00", "phone": "+82 507 1418 9289", "website": "http://hdgaemi.com"}}, {"type": "node", "id": 4177998638, "lat": 37.5500862, "lon": 126.9236904, "tags": {"addr:city": "\uc11c\uc6b8\ud2b9\ubcc4\uc2dc", "addr:district": "\ub9c8\ud3ec\uad6c", "addr:housenumber": "12", "addr:postcode": "04067", "addr:street": "\uc640\uc6b0\uc0b0\ub85c14\uae38", "addr:subdistrict": "\uc0c1\uc218\ub3d9", "amenity": "cafe", "name": "\ube14\ub93c\ud14c"}}, {"type": "node", "id": 4177998749, "lat": 37.5490264, "lon": 126.9239117, "tags": {"addr:city": "\uc11c\uc6b8\ud2b9\ubcc4\uc2dc", "addr:district": "\ub9c8\ud3ec\uad6c", "addr:housenumber": "42", "addr:postcode": "04067", "addr:street": "\ub3c5\ub9c9\ub85c19\uae38", "addr:subdistrict": "\uc0c1\uc218\ub3d9", "amenity": "restaurant", "name": "\uc740\ud558\uc218\uc2dd\ub2f9 \uc11c\uc6b8\ud64d\ub300\uc810"}}, {"type": "node", "id": 4178005169, "lat": 37.5491136, "lon": 126.9229113, "tags": {"addr:city": "\uc11c\uc6b8\ud2b9\ubcc4\uc2dc", "addr:district": "\ub9c8\ud3ec\uad6c", "addr:housenumber": "51", "addr:postcode": "04049", "addr:street": "\uc640\uc6b0\uc0b0\ub85c", "addr:subdistrict": "\uc0c1\uc218\ub3d9", "amenity": "restaurant", "name": "\uc694\uae30"}}, {"type": "node", "id": 4178005171, "lat": 37.5491252, "lon": 126.92258, "tags": {"addr:city": "\uc11c\uc6b8\ud2b9\ubcc4\uc2dc", "addr:district": "\ub9c8\ud3ec\uad6c", "addr:housenumber": "49", "addr:postcode": "04049", "addr:street": "\uc640\uc6b0\uc0b0\ub85c", "addr:subdistrict": "\uc0c1\uc218\ub3d9", "name": "\uc62c\ub9ac\ube0c\uc601 \uc0c1\uc218\uc5ed\uc810", "shop": "convenience"}}, {"type": "node", "id": 4178005172, "lat": 37.5489477, "lon": 126.9224687, "tags": {"addr:city": "\uc11c\uc6b8\ud2b9\ubcc4\uc2dc", "addr:district": "\ub9c8\ud3ec\uad6c", "addr:housenumber": "10", "addr:postcode": "04049", "addr:street": "\uc640\uc6b0\uc0b0\ub85c11\uae38", "addr:subdistrict": "\uc0c1\uc218\ub3d9", "amenity": "restaurant", "cuisine": "\uc544\uc2dc\uc544\uc2dd", "name": "\uc637\uc0e4\ube0c", "name:ko": "\uc6c3\uc0ac\ube0c"}}, {"type": "node", "id": 4178005173, "lat": 37.5490222, "lon": 126.9220234, "tags": {"addr:city": "\uc11c\uc6b8\ud2b9\ubcc4\uc2dc", "addr:district": "\ub9c8\ud3ec\uad6c", "addr:housenumber": "16", "addr:postcode": "04049", "addr:street": "\uc640\uc6b0\uc0b0\ub85c11\uae38", "addr:subdistrict": "\uc0c1\uc218\ub3d9", "name": "\ub9ac\ud30c\uc774\ub108\ub9ac", "shop": "beauty"}}, {"type": "node", "id": 4216954389, "lat": 37.5479648, "lon": 126.9222129, "tags": {"addr:city": "\uc11c\uc6b8\ud2b9\ubcc4\uc2dc", "addr:district": "\ub9c8\ud3ec\uad6c", "addr:housenumber": "79", "addr:postcode": "04049", "addr:street": "\ub3c5\ub9c9\ub85c", "addr:subdistrict": "\uc0c1\uc218\ub3d9", "amenity": "restaurant", "name": "\ud64d\ub300 \uc0ad \uc0c1\uc218\ubcf8\uc810"}}, {"type": "node", "id": 4304630794, "lat": 37.5477948, "lon": 126.9243368, "tags": {"amenity": "restaurant"}}, {"type": "node", "id": 4304630795, "lat": 37.5477855, "lon": 126.9244596, "tags": {"amenity": "restaurant", "name:zh": "\u5b89\u6771\u7c89\u7d72\u5ae9\u96de"}}, {"type": "node", "id": 4323072689, "lat": 37.548166, "lon": 126.9228043, "tags": {"addr:city": "\uc11c\uc6b8\ud2b9\ubcc4\uc2dc", "addr:district": "\ub9c8\ud3ec\uad6c", "addr:housenumber": "41", "addr:postcode": "04049", "addr:street": "\uc640\uc6b0\uc0b0\ub85c", "addr:subdistrict": "\uc0c1\uc218\ub3d9", "amenity": "restaurant", "cuisine": "mexican;\ud0c0\ucf54;\ud018\uc0ac\ub514\uc544;\ubd80\ub9ac\ud1a0", "internet_access": "wlan", "name": "Gusto Taco", "opening_hours": "Tu-Su 11:30-21:00", "phone": "02-338-8226", "website": "http://gustotaco.com/"}}, {"type": "node", "id": 4346041289, "lat": 37.5484466, "lon": 126.9206608, "tags": {"name": "\ud398\uc774\uc9c0\uc6d0", "opening_hours": "Mo-Su 14:00-23:00", "shop": "clothes", "website": "http://page-one.co.kr"}}, {"type": "node", "id": 4346060290, "lat": 37.5480639, "lon": 126.9209213, "tags": {"name": "\ucfc4\ubca0\uc774\ucee4\ub9ac", "opening_hours": "Mo-Su 10:00-22:00", "shop": "bakery"}}, {"type": "node", "id": 4346157989, "lat": 37.5484541, "lon": 126.9208514, "tags": {"amenity": "restaurant", "cuisine": "american;barbecue", "name": "\uad6c\uad6c\uc2a4 \uc11c\uc591\ubc25\uc9d1", "opening_hours": "Mo-Su 11:00-22:00", "phone": "+82 2 6348 7798", "website": "http://99sjjang.mobilefarms.com"}}, {"type": "node", "id": 4346229789, "lat": 37.5484707, "lon": 126.9215371, "tags": {"addr:city": "\uc11c\uc6b8\ud2b9\ubcc4\uc2dc", "addr:district": "\ub9c8\ud3ec\uad6c", "addr:door": "103", "addr:floor": "1", "addr:housenumber": "3-12", "amenity": "restaurant", "cuisine": "japanese;ramen", "name": "\ucf04\ube44\uba58RIKI", "name:ja": "\u5065\u7f8e\u9eba\u529b", "opening_hours": "Tu-Su 11:30-14:30, 17:00-22:00", "phone": "+82 2 324 0822"}}, {"type": "node", "id": 4346231195, "lat": 37.5471998, "lon": 126.922694, "tags": {"addr:city": "\uc11c\uc6b8\ud2b9\ubcc4\uc2dc", "addr:district": "\ub9c8\ud3ec\uad6c", "addr:housenumber": "6", "addr:postcode": "04074", "addr:street": "\uc640\uc6b0\uc0b0\ub85c7\uae38", "addr:subdistrict": "\uc0c1\uc218\ub3d9", "amenity": "restaurant", "cuisine": "japanese;ramen", "name": "\ub77c\uba58\ud2b8\ub7ed", "opening_hours": "Mo-Su 11:30-14:30, 17:00-00:00", "phone": "+82 2 336 8455", "website": "http://facebook.com/ramentruck"}}, {"type": "node", "id": 4346388306, "lat": 37.5483476, "lon": 126.9211939, "tags": {"amenity": "cafe", "cuisine": "coffee_shop;tea", "name": "\ucee8\ud1a0\uc774\ub108", "opening_hours": "Mo-Su 12:00-23:00"}}, {"type": "node", "id": 4459644198, "lat": 37.5497382, "lon": 126.9231004, "tags": {"name": "Snob", "name:ko": "Snob", "shop": "confectionery"}}, {"type": "node", "id": 4796406421, "lat": 37.5481078, "lon": 126.9217294, "tags": {"amenity": "cafe", "name": "\uc720\ub2c8\ud06c\uc2a4\uc704\ud2b8", "name:en": "UNIQUE SWEET", "name:ko": "\uc720\ub2c8\ud06c\uc2a4\uc704\ud2b8"}}, {"type": "node", "id": 4796423821, "lat": 37.5482588, "lon": 126.9220461, "tags": {"amenity": "cafe", "name": "\ub3c4\ucfc4\ube59\uc218", "name:ko": "\ub3c4\ucfc4\ube59\uc218"}}, {"type": "node", "id": 4860996121, "lat": 37.5482986, "lon": 126.925023, "tags": {"name:en": "7 Eleven", "shop": "convenience"}}, {"type": "node", "id": 4945094726, "lat": 37.5499043, "lon": 126.923996, "tags": {"amenity": "cafe", "name": "\ube14\ub8e8\uc2a4 \ucee4\ud53c", "name:en": "Coffee the blues", "name:ko": "\ube14\ub8e8\uc2a4 \ucee4\ud53c"}}, {"type": "node", "id": 4945095721, "lat": 37.5490415, "lon": 126.9236845, "tags": {"name": "\ubd09\uad50 \ubca0\uc774\ucee4\ub9ac", "name:en": "Bonggyo bakery", "name:ko": "\ubd09\uad50 \ubca0\uc774\ucee4\ub9ac", "shop": "bakery"}}, {"type": "node", "id": 4945107223, "lat": 37.549724, "lon": 126.9229353, "tags": {"addr:city": "\uc11c\uc6b8\ud2b9\ubcc4\uc2dc", "addr:district": "\ub9c8\ud3ec\uad6c", "addr:housenumber": "59", "addr:postcode": "04049", "addr:street": "\uc640\uc6b0\uc0b0\ub85c", "addr:subdistrict": "\uc0c1\uc218\ub3d9", "amenity": "cafe", "name": "\uc2a4\ub189", "name:en": "Snob", "name:ko": "\uc2a4\ub178\ube0c"}}, {"type": "node", "id": 5106724720, "lat": 37.548073, "lon": 126.9225323, "tags": {"amenity": "ice_cream", "name": "\uae4c\ub97c\ub85c\uc2a4 \uc824\ub77c\ub5bc\ub9ac\uc544", "outdoor_seating": "yes", "takeaway": "yes"}}, {"type": "node", "id": 5106728731, "lat": 37.5490964, "lon": 126.9238811, "tags": {"amenity": "restaurant", "capacity": "15", "cuisine": "regional", "name": "\ub2ec\ub098\ub77c \uc2dd\ud0c1"}}, {"type": "node", "id": 5140617525, "lat": 37.5479895, "lon": 126.9231497, "tags": {"amenity": "cafe", "brand": "Hollys", "brand:en": "Hollys", "brand:ko": "\ud560\ub9ac\uc2a4", "brand:wikidata": "Q12624386", "cuisine": "coffee_shop", "internet_access": "wlan", "name": "Hollys", "name:en": "Hollys", "name:ja": "\u30db\u30ea\u30fc\u30b9\u30b3\u30fc\u30d2\u30fc", "name:ko": "\ud560\ub9ac\uc2a4", "opening_hours": "Mo-Su 09:00-23:00", "smoking": "outside", "takeaway": "yes"}}, {"type": "node", "id": 5140617526, "lat": 37.5483014, "lon": 126.9231481, "tags": {"amenity": "fast_food", "brand": "Subway", "brand:wikidata": "Q244457", "brand:wikipedia": "en:Subway (restaurant)", "cuisine": "sandwich", "delivery": "yes", "name": "Subway", "opening_hours": "08:00-22:00", "smoking": "no", "takeaway": "yes"}}, {"type": "node", "id": 5493359822, "lat": 37.5484765, "lon": 126.92228, "tags": {"amenity": "restaurant", "name": "\ub0ad\ub9cc\ub2ec\ud638"}}, {"type": "node", "id": 5684842624, "lat": 37.5487377, "lon": 126.9244511, "tags": {"amenity": "restaurant", "branch": "1\ud638\uc810", "branch:ja": "1\u53f7\u5e97", "cuisine": "korean;local", "name": "\ube44\ube44\ub9ac", "name:en": "bibiri", "name:ja": "\u30d3\u30d3\u91cc", "opening_hours": "Mo-Sa 11:00-20:00"}}, {"type": "node", "id": 5707433570, "lat": 37.5466907, "lon": 126.9229799}, {"type": "node", "id": 5707433571, "lat": 37.5464744, "lon": 126.9229811}, {"type": "node", "id": 5707433572, "lat": 37.5464731, "lon": 126.9230612}, {"type": "node", "id": 5707433573, "lat": 37.5465901, "lon": 126.9231538}, {"type": "node", "id": 5707433574, "lat": 37.5466895, "lon": 126.9230579}, {"type": "node", "id": 6499261785, "lat": 37.5501573, "lon": 126.9237221, "tags": {"amenity": "cafe", "name:de": "Caf\u00e9 Poete", "name:en": "Caf\u00e9 Poete"}}, {"type": "node", "id": 6865209185, "lat": 37.5485606, "lon": 126.9211755, "tags": {"name": "\uc784\ube14\ub9ac", "name:en": "imvely", "opening_hours": "Mo-Su 11:00-22:00", "shop": "clothes", "website": "https://m.imvely.com/"}}, {"type": "node", "id": 7173903285, "lat": 37.5475204, "lon": 126.9228399, "tags": {"addr:city": "\uc11c\uc6b8\ud2b9\ubcc4\uc2dc", "addr:district": "\ub9c8\ud3ec\uad6c", "addr:housenumber": "86", "addr:postcode": "04074", "addr:street": "\ub3c5\ub9c9\ub85c", "addr:subdistrict": "\uc0c1\uc218\ub3d9", "amenity": "bar", "name": "\uc0c1\uc218\ub9ac", "name:en": "Sangsu-ri", "opening_hours": "Tu-Su 18:00-02:00"}}, {"type": "node", "id": 7173904788, "lat": 37.5473307, "lon": 126.9228913, "tags": {"addr:city": "\uc11c\uc6b8\ud2b9\ubcc4\uc2dc", "addr:district": "\ub9c8\ud3ec\uad6c", "addr:housenumber": "31", "addr:postcode": "04074", "addr:street": "\uc640\uc6b0\uc0b0\ub85c", "addr:subdistrict": "\uc0c1\uc218\ub3d9", "amenity": "restaurant", "cuisine": "korean", "name": "\uc5f0\ub204 \uae40\ubc25", "name:en": "Yeonu Gimbap", "opening_hours": "Mo-Sa 07:00-21:30, Su 08:30-20:00"}}, {"type": "node", "id": 7217874685, "lat": 37.5484907, "lon": 126.9213615, "tags": {"amenity": "restaurant", "name": "Ciuri Ciuri, Italian"}}, {"type": "node", "id": 7503588785, "lat": 37.54687, "lon": 126.9228878, "tags": {"addr:city": "\uc11c\uc6b8\ud2b9\ubcc4\uc2dc", "addr:district": "\ub9c8\ud3ec\uad6c", "addr:housenumber": "27", "addr:postcode": "04074", "addr:street": "\uc640\uc6b0\uc0b0\ub85c", "addr:subdistrict": "\uc0c1\uc218\ub3d9", "amenity": "restaurant", "name": "\ub610\ubc14\uae30 \uce58\ud0a8", "name:en": "Ddobagi Chicken", "opening_hours": "Tu-Su 00:00-14:00, 17:00-23:59; Mo 00:00-01:00, 17:00-23:59"}}, {"type": "node", "id": 7842003135, "lat": 37.5481029, "lon": 126.923123, "tags": {"amenity": "cafe", "name": "\ucee4\ud53c\ube48"}}, {"type": "node", "id": 7842003142, "lat": 37.5475264, "lon": 126.9232262, "tags": {"amenity": "cafe", "brand": "\uc2a4\ud0c0\ubc85\uc2a4", "brand:en": "Starbucks", "brand:ko": "\uc2a4\ud0c0\ubc85\uc2a4", "brand:wikidata": "Q37158", "brand:wikipedia": "ko:\uc2a4\ud0c0\ubc85\uc2a4", "cuisine": "coffee_shop", "name": "\uc2a4\ud0c0\ubc85\uc2a4", "name:en": "Starbucks", "name:ja": "\u30b9\u30bf\u30fc\u30d0\u30c3\u30af\u30b9", "name:ko": "\uc2a4\ud0c0\ubc85\uc2a4", "takeaway": "yes"}}, {"type": "node", "id": 7842003143, "lat": 37.5474751, "lon": 126.9227748, "tags": {"amenity": "cafe", "name": "\ud22c\uc378\ud50c\ub808\uc774\uc2a4"}}, {"type": "node", "id": 10814734805, "lat": 37.5474666, "lon": 126.923667, "tags": {"contact:instagram": "bikemakesmehappy", "name:en": "BIKE MAKES ME HAPPY", "opening_hours": "Tu-Sa 13:00-20:00; Su 13:00-18:00", "phone": "+82 70-7576-0888", "shop": "bicycle", "website": "https://m.bikemakesmehappy.com/"}}, {"type": "node", "id": 11396807428, "lat": 37.5469513, "lon": 126.9230686, "tags": {"addr:city": "\uc11c\uc6b8\ud2b9\ubcc4\uc2dc", "addr:district": "\ub9c8\ud3ec\uad6c", "addr:housenumber": "28", "addr:postcode": "04075", "addr:street": "\uc640\uc6b0\uc0b0\ub85c", "addr:subdistrict": "\uc0c1\uc218\ub3d9", "amenity": "bar", "name": "\uc2dc\uccad\uac01"}}, {"type": "node", "id": 11896292117, "lat": 37.547566, "lon": 126.9219289, "tags": {"alt_name": "\uc0c1\uc218\ud3ec\uc9f1", "amenity": "pub", "name": "\uace0\uc218\ud3ec\ucc28", "name:ko": "\uace0\uc218\ud3ec\ucc28"}}, {"type": "node", "id": 12074548703, "lat": 37.5481919, "lon": 126.9218227, "tags": {"addr:city": "\uc11c\uc6b8\ud2b9\ubcc4\uc2dc", "addr:district": "\ub9c8\ud3ec\uad6c", "addr:housenumber": "5", "addr:postcode": "04049", "addr:street": "\ub3c5\ub9c9\ub85c15\uae38", "addr:subdistrict": "\uc0c1\uc218\ub3d9", "amenity": "restaurant", "cuisine": "japanese", "name": "\ub3c4\ub77c\uace4(Doragon)"}}, {"type": "node", "id": 12074738339, "lat": 37.5475905, "lon": 126.9226141, "tags": {"amenity": "restaurant", "name": "\ubc84\ub4e4\uace8\uc774\uc57c\uae30"}}, {"type": "node", "id": 12192196346, "lat": 37.5484555, "lon": 126.9242004, "tags": {"addr:city": "\uc11c\uc6b8\ud2b9\ubcc4\uc2dc", "addr:district": "\ub9c8\ud3ec\uad6c", "addr:floor": "1", "addr:housenumber": "29", "addr:postcode": "04068", "addr:street": "\uc640\uc6b0\uc0b0\ub85c10\uae38", "addr:subdistrict": "\uc0c1\uc218\ub3d9", "amenity": "bar", "contact:instagram": "bar_loafer", "contact:threads": "@bar_loafer", "level": "0", "name": "\ubc14 \ub85c\ud37c", "name:en": "Bar Loafer", "opening_hours": "Su-Th 19:00-01:00; Fr-Sa 19:00-03:00", "phone": "010-7159-1767"}}, {"type": "node", "id": 12192196943, "lat": 37.5483792, "lon": 126.9220252, "tags": {"addr:city": "\uc11c\uc6b8\ud2b9\ubcc4\uc2dc", "addr:district": "\ub9c8\ud3ec\uad6c", "addr:housenumber": "13", "addr:postcode": "04049", "addr:street": "\ub3c5\ub9c9\ub85c15\uae38", "addr:subdistrict": "\uc0c1\uc218\ub3d9", "addr:unit": "311-7\ube4c\ub529 \uc9c0\ud5581\uce35 (\uc0c1\uc218\ub3d9)", "alt_name:en": "Bar Feather", "amenity": "bar", "cocktails": "yes", "contact:facebook": "Bar_Feather-100076013230418", "contact:instagram": "bar_feather", "contact:naver": "https://m.place.naver.com/restaurant/37743324/home", "contact:threads": "bar_feather", "drink:cocktail": "yes", "level": "0", "name": "\ud398\ub354", "name:en": "Feather", "opening_hours": "Mo-Su 19:00-03:00", "phone": "02-333-4440"}}, {"type": "node", "id": 12192197880, "lat": 37.5485965, "lon": 126.9251472, "tags": {"addr:city": "\uc11c\uc6b8\ud2b9\ubcc4\uc2dc", "addr:district": "\ub9c8\ud3ec\uad6c", "addr:floor": "B1", "addr:housenumber": "20-6", "addr:postcode": "04067", "addr:street": "\ub3c5\ub9c9\ub85c19\uae38", "addr:subdistrict": "\uc0c1\uc218\ub3d9", "amenity": "restaurant", "name": "\ud50c\ub808\uc774\ud2b8946", "name:en": "PLATE946", "opening_hours": "Mo-Su 11:30-15:00,17:30-22:00"}}, {"type": "node", "id": 12192199405, "lat": 37.5481477, "lon": 126.9228319, "tags": {"addr:city": "\uc11c\uc6b8\ud2b9\ubcc4\uc2dc", "addr:district": "\ub9c8\ud3ec\uad6c", "addr:floor": "1;B1", "addr:housenumber": "41", "addr:postcode": "04049", "addr:street": "\uc640\uc6b0\uc0b0\ub85c", "addr:subdistrict": "\uc0c1\uc218\ub3d9", "amenity": "restaurant", "cuisine": "mexican", "name": "\uad6c\uc2a4\ud1a0\ud0c0\ucf54"}}, {"type": "node", "id": 12192199586, "lat": 37.548602, "lon": 126.921413, "tags": {"addr:city": "\uc11c\uc6b8\ud2b9\ubcc4\uc2dc", "addr:district": "\ub9c8\ud3ec\uad6c", "addr:floor": "2", "addr:housenumber": "3-14", "addr:postcode": "04049", "addr:street": "\ub3c5\ub9c9\ub85c15\uae38", "addr:subdistrict": "\uc0c1\uc218\ub3d9", "amenity": "restaurant", "cuisine": "mexican", "name": "\uba55\uc2dc\uce74\uace0 \ud0c0\ucf5423"}}, {"type": "node", "id": 12278192221, "lat": 37.5483744, "lon": 126.922844, "tags": {"addr:city": "\uc11c\uc6b8\ud2b9\ubcc4\uc2dc", "addr:district": "\ub9c8\ud3ec\uad6c", "addr:housenumber": "43", "addr:postcode": "04049", "addr:street": "\uc640\uc6b0\uc0b0\ub85c", "addr:subdistrict": "\uc0c1\uc218\ub3d9", "amenity": "cafe", "cocktails": "yes", "contact:facebook": "https://www.facebook.com/profile.php?id=61564976856336", "cuisine": "coffee_shop", "name": "Fuglen Seoul", "name:ko": "\ud478\uae00\ub80c \uc11c\uc6b8", "website": "https://fuglen.no/Fuglen-Seoul"}}, {"type": "node", "id": 12425206141, "lat": 37.5488634, "lon": 126.9222418, "tags": {"addr:city": "\uc11c\uc6b8\ud2b9\ubcc4\uc2dc", "addr:district": "\ub9c8\ud3ec\uad6c", "addr:floor": "1", "addr:housenumber": "9-4", "addr:postcode": "04049", "addr:street": "\uc640\uc6b0\uc0b0\ub85c11\uae38", "addr:subdistrict": "\uc0c1\uc218\ub3d9", "amenity": "restaurant", "cuisine": "mexican", "name": "\uc6d0\ud0c0\ucf54\uc2a4", "opening_hours": "Tu-Sa 12:00-21:30", "phone": "0507-1476-0385", "website": "https://www.instagram.com/won_tacos"}}, {"type": "node", "id": 12976277864, "lat": 37.5479412, "lon": 126.9220102, "tags": {"addr:city": "\uc11c\uc6b8\ud2b9\ubcc4\uc2dc", "addr:district": "\ub9c8\ud3ec\uad6c", "addr:housenumber": "75-1", "addr:postcode": "04049", "addr:street": "\ub3c5\ub9c9\ub85c", "addr:subdistrict": "\uc0c1\uc218\ub3d9", "alt_name": "Bettyboop", "branch": "\uc0c1\uc218\uc810", "branch:en": "Sangsu", "name": "\ubca0\ud2f0\ubd91", "opening_hours": "24/7", "operator": "Bettyboop.kr", "phone": "+82 70 7575 3199", "shop": "clothes"}}, {"type": "node", "id": 12993928457, "lat": 37.5471268, "lon": 126.9231503, "tags": {"addr:city": "\uc11c\uc6b8\ud2b9\ubcc4\uc2dc", "addr:district": "\ub9c8\ud3ec\uad6c", "addr:floor": "2", "addr:housenumber": "30", "addr:postcode": "04075", "addr:street": "\uc640\uc6b0\uc0b0\ub85c", "addr:subdistrict": "\uc0c1\uc218\ub3d9", "branch": "\ud64d\ub300\uc0c1\uc218", "level": "1", "name": "\uc2a4\ubb3c\uc720", "name:en": "20u hairsalon", "name:ko": "\uc2a4\ubb3c\uc720", "opening_hours": "Mo-Su 10:00-20:00", "phone": "+82 2 3144 3317", "shop": "hairdresser"}}, {"type": "node", "id": 13231705244, "lat": 37.5484987, "lon": 126.9245722, "tags": {"addr:city": "\uc11c\uc6b8\ud2b9\ubcc4\uc2dc", "addr:district": "\ub9c8\ud3ec\uad6c", "addr:floor": "4", "addr:housenumber": "37", "addr:postcode": "04068", "addr:street": "\uc640\uc6b0\uc0b0\ub85c10\uae38", "addr:subdistrict": "\uc0c1\uc218\ub3d9", "beauty": "waxing", "level": "3", "name": "\uc81d\uc2dc\uc641\uc2f1 ZEXYWAXING", "phone": "+82-10-7776-6117", "shop": "beauty"}}, {"type": "node", "id": 13380459024, "lat": 37.5503219, "lon": 126.9238476, "tags": {"name": "\uace0\ub098\uc0f5 \uad7f\uc988\uc81c\uc791\uc18c", "shop": "anime"}}, {"type": "node", "id": 13572070672, "lat": 37.5480856, "lon": 126.9222602, "tags": {"addr:city": "\uc11c\uc6b8\ud2b9\ubcc4\uc2dc", "addr:district": "\ub9c8\ud3ec\uad6c", "addr:housenumber": "39-13", "addr:postcode": "04049", "addr:street": "\uc640\uc6b0\uc0b0\ub85c", "addr:subdistrict": "\uc0c1\uc218\ub3d9", "amenity": "restaurant", "bar": "yes", "cuisine": "coffee_shop", "drink:coffee": "yes", "name": "\uc704\ub354\uc0c1\uc218 wethesangsu", "opening_hours": "08:00-22:00", "payment:cards": "yes", "payment:cash": "yes", "payment:credit_cards": "yes", "payment:debit_cards": "yes", "payment:mastercard": "yes", "payment:visa": "yes", "website": "https://www.instagram.com/wethesangsu/"}}, {"type": "node", "id": 13851200802, "lat": 37.5473225, "lon": 126.9226873, "tags": {"addr:city": "\ub9c8\ud3ec\uad6c", "addr:housenumber": "32", "addr:province": "\uc11c\uc6b8\ud2b9\ubcc4\uc2dc", "addr:street": "\ub3c5\ub9c9\ub85c14\uae38", "addr:unit": "\uc774\ud604h 2\uce35", "name": "\uc0b4\ub8e8\ud2b8 \ud5e4\uc5b4", "shop": "hairdresser"}}, {"type": "node", "id": 13851200810, "lat": 37.5470212, "lon": 126.9232461, "tags": {"addr:city": "\ub9c8\ud3ec\uad6c", "addr:housenumber": "92-15", "addr:province": "\uc11c\uc6b8\ud2b9\ubcc4\uc2dc", "addr:street": "\ub3c5\ub9c9\ub85c", "addr:unit": "\uc0bc\uc0bc\uacf5\ube4c\ub529 2\uce35 202\ud638", "name": "\uc5d0\ub974\ub124\uc77c(Hernail)", "shop": "hairdresser"}}, {"type": "node", "id": 13851200859, "lat": 37.5478824, "lon": 126.9248068, "tags": {"addr:city": "\ub9c8\ud3ec\uad6c", "addr:housenumber": "101", "addr:province": "\uc11c\uc6b8\ud2b9\ubcc4\uc2dc", "addr:street": "\ub3c5\ub9c9\ub85c", "addr:unit": "BR\uc5d8\ub9ac\ud154 A\ub3d9 1\uce35 101\ud638", "name": "\uc774\uac00\uc790 \ud5e4\uc5b4\ube44\uc2a4 \ud64d\ub300\uc0c1\uc218\uc810", "shop": "hairdresser"}}, {"type": "node", "id": 13851200887, "lat": 37.5492835, "lon": 126.9223309, "tags": {"addr:city": "\ub9c8\ud3ec\uad6c", "addr:housenumber": "51-27", "addr:province": "\uc11c\uc6b8\ud2b9\ubcc4\uc2dc", "addr:street": "\uc640\uc6b0\uc0b0\ub85c", "addr:unit": "1\uce35 102\ud638", "name": "\ud61c\uc6c0\ubdf0\ud2f0\ud6a8", "shop": "hairdresser"}}, {"type": "node", "id": 13851200917, "lat": 37.5484288, "lon": 126.9224677, "tags": {"addr:city": "\ub9c8\ud3ec\uad6c", "addr:housenumber": "9-11", "addr:province": "\uc11c\uc6b8\ud2b9\ubcc4\uc2dc", "addr:street": "\uc640\uc6b0\uc0b0\ub85c11\uae38", "addr:unit": "1\uce35 \uc6b0\uce21\ud638", "name": "\ub77c\ud53c\ub4dc \ud5e4\uc5b4", "shop": "hairdresser"}}, {"type": "node", "id": 13851200936, "lat": 37.5470052, "lon": 126.9234614, "tags": {"addr:city": "\ub9c8\ud3ec\uad6c", "addr:housenumber": "20", "addr:province": "\uc11c\uc6b8\ud2b9\ubcc4\uc2dc", "addr:street": "\ub3c5\ub9c9\ub85c18\uae38", "addr:unit": "1\uce35", "name": "\ubdd4\uc74b", "shop": "hairdresser"}}, {"type": "node", "id": 13851200950, "lat": 37.5481305, "lon": 126.9223701, "tags": {"addr:city": "\ub9c8\ud3ec\uad6c", "addr:housenumber": "39-11", "addr:province": "\uc11c\uc6b8\ud2b9\ubcc4\uc2dc", "addr:street": "\uc640\uc6b0\uc0b0\ub85c", "addr:unit": "2\uce35", "name": "\ub354\ud558\ub2e4", "shop": "hairdresser"}}, {"type": "node", "id": 13851200955, "lat": 37.5488169, "lon": 126.9215567, "tags": {"addr:city": "\ub9c8\ud3ec\uad6c", "addr:housenumber": "35", "addr:province": "\uc11c\uc6b8\ud2b9\ubcc4\uc2dc", "addr:street": "\uc640\uc6b0\uc0b0\ub85c13\uae38", "addr:unit": "\uc544\uc9c4 401\ud638", "name": "\ub9e8\uc988\ucf54\ub4dc(mans code)", "shop": "hairdresser"}}, {"type": "node", "id": 13851200972, "lat": 37.5476061, "lon": 126.922174, "tags": {"addr:city": "\ub9c8\ud3ec\uad6c", "addr:housenumber": "78", "addr:province": "\uc11c\uc6b8\ud2b9\ubcc4\uc2dc", "addr:street": "\ub3c5\ub9c9\ub85c", "addr:unit": "2\uce35", "name": "\ub9ac\uc548\ud5e4\uc5b4 \uc0c1\uc218\uc5ed\uc810", "shop": "hairdresser"}}, {"type": "node", "id": 13851201015, "lat": 37.5480668, "lon": 126.9252681, "tags": {"addr:city": "\ub9c8\ud3ec\uad6c", "addr:housenumber": "7", "addr:province": "\uc11c\uc6b8\ud2b9\ubcc4\uc2dc", "addr:street": "\ub3c5\ub9c9\ub85c19\uae38", "addr:unit": "\ud64d\ud604\ube4c\ub529 2\uce35", "name": "\ub370\uc528\ub124", "shop": "hairdresser"}}, {"type": "node", "id": 13851201048, "lat": 37.5471578, "lon": 126.9234026, "tags": {"addr:city": "\ub9c8\ud3ec\uad6c", "addr:housenumber": "92-11", "addr:province": "\uc11c\uc6b8\ud2b9\ubcc4\uc2dc", "addr:street": "\ub3c5\ub9c9\ub85c", "addr:unit": "1\uce35", "name": "\uadf8\ub9bc\ud648", "shop": "hairdresser"}}, {"type": "node", "id": 13851201072, "lat": 37.5483706, "lon": 126.9220158, "tags": {"addr:city": "\ub9c8\ud3ec\uad6c", "addr:housenumber": "13", "addr:province": "\uc11c\uc6b8\ud2b9\ubcc4\uc2dc", "addr:street": "\ub3c5\ub9c9\ub85c15\uae38", "addr:unit": "311-7\ube4c\ub529 3\uce35", "name": "MOUV(\ubaa8\uc6b0\ube0c)", "shop": "hairdresser"}}, {"type": "node", "id": 13851201076, "lat": 37.5484653, "lon": 126.9215392, "tags": {"addr:city": "\ub9c8\ud3ec\uad6c", "addr:housenumber": "3-12", "addr:province": "\uc11c\uc6b8\ud2b9\ubcc4\uc2dc", "addr:street": "\ub3c5\ub9c9\ub85c15\uae38", "addr:unit": "501\ud638", "name": "\uc624\uc694\uc0f5", "shop": "hairdresser"}}, {"type": "node", "id": 13851201091, "lat": 37.5482745, "lon": 126.9253104, "tags": {"addr:city": "\ub9c8\ud3ec\uad6c", "addr:housenumber": "12", "addr:province": "\uc11c\uc6b8\ud2b9\ubcc4\uc2dc", "addr:street": "\ub3c5\ub9c9\ub85c19\uae38", "addr:unit": "1\uce35 \uc88c\uce21\ud638", "name": "\ube44\uce58\ub098(VICHINA)", "shop": "hairdresser"}}, {"type": "node", "id": 13851201109, "lat": 37.5487198, "lon": 126.9217732, "tags": {"addr:city": "\ub9c8\ud3ec\uad6c", "addr:housenumber": "21", "addr:province": "\uc11c\uc6b8\ud2b9\ubcc4\uc2dc", "addr:street": "\uc640\uc6b0\uc0b0\ub85c11\uae38", "addr:unit": "2\uce35", "name": "\ud504\ub9ad\uc0f5", "shop": "hairdresser"}}, {"type": "node", "id": 13851201110, "lat": 37.5492835, "lon": 126.9223309, "tags": {"addr:city": "\ub9c8\ud3ec\uad6c", "addr:housenumber": "51-27", "addr:province": "\uc11c\uc6b8\ud2b9\ubcc4\uc2dc", "addr:street": "\uc640\uc6b0\uc0b0\ub85c", "addr:unit": "101\ud638", "name": "\ud53c\ub098\ud2b8\ub9e8", "shop": "hairdresser"}}, {"type": "node", "id": 13851201112, "lat": 37.5479435, "lon": 126.923595, "tags": {"addr:city": "\ub9c8\ud3ec\uad6c", "addr:housenumber": "91", "addr:province": "\uc11c\uc6b8\ud2b9\ubcc4\uc2dc", "addr:street": "\ub3c5\ub9c9\ub85c", "addr:unit": "4\uce35 \uc77c\ubd80\ud638", "name": "\ubb38\ub124\uc77c", "shop": "hairdresser"}}, {"type": "node", "id": 13851201130, "lat": 37.5475923, "lon": 126.9226268, "tags": {"addr:city": "\ub9c8\ud3ec\uad6c", "addr:housenumber": "84", "addr:province": "\uc11c\uc6b8\ud2b9\ubcc4\uc2dc", "addr:street": "\ub3c5\ub9c9\ub85c", "addr:unit": "2\uce35", "name": "\uafb8\ube14\ub791\ud5e4\uc5b4 \ud64d\ub300\uc0c1\uc218\uc810", "shop": "hairdresser"}}, {"type": "node", "id": 13851201132, "lat": 37.5484721, "lon": 126.9222747, "tags": {"addr:city": "\ub9c8\ud3ec\uad6c", "addr:housenumber": "9-10", "addr:province": "\uc11c\uc6b8\ud2b9\ubcc4\uc2dc", "addr:street": "\uc640\uc6b0\uc0b0\ub85c11\uae38", "addr:unit": "\uc9c0\uce35 \uc804\uccb4\ud638", "name": "\ud5e4\uc5b4\uc2a4\ud29c\ub514\uc624 \uc704 \uc5c5", "shop": "hairdresser"}}, {"type": "node", "id": 13851201137, "lat": 37.5467988, "lon": 126.9225704, "tags": {"addr:city": "\ub9c8\ud3ec\uad6c", "addr:housenumber": "10", "addr:province": "\uc11c\uc6b8\ud2b9\ubcc4\uc2dc", "addr:street": "\uc640\uc6b0\uc0b0\ub85c5\uae38", "name": "\ud37c\ub2dd", "shop": "hairdresser"}}, {"type": "node", "id": 13851201149, "lat": 37.5484288, "lon": 126.9224677, "tags": {"addr:city": "\ub9c8\ud3ec\uad6c", "addr:housenumber": "9-11", "addr:province": "\uc11c\uc6b8\ud2b9\ubcc4\uc2dc", "addr:street": "\uc640\uc6b0\uc0b0\ub85c11\uae38", "addr:unit": "4\uce35", "name": "\ucbb8\ub124\uc77c", "shop": "hairdresser"}}, {"type": "node", "id": 13851201157, "lat": 37.5482588, "lon": 126.9226059, "tags": {"addr:city": "\ub9c8\ud3ec\uad6c", "addr:housenumber": "39-10", "addr:province": "\uc11c\uc6b8\ud2b9\ubcc4\uc2dc", "addr:street": "\uc640\uc6b0\uc0b0\ub85c", "addr:unit": "1\uce35", "name": "\ud06c\ub808\uc774\uc9c0\ub354\ube14\uc720\uc528", "shop": "hairdresser"}}, {"type": "node", "id": 13851201202, "lat": 37.5493266, "lon": 126.9240957, "tags": {"addr:city": "\ub9c8\ud3ec\uad6c", "addr:housenumber": "72", "addr:province": "\uc11c\uc6b8\ud2b9\ubcc4\uc2dc", "addr:street": "\uc640\uc6b0\uc0b0\ub85c22\uae38", "addr:unit": "1\uce35 101\ud638", "name": "\ubbf8\uc7a5\uc6d0\uc9c0\uc2ac", "shop": "hairdresser"}}, {"type": "node", "id": 13851201204, "lat": 37.5482667, "lon": 126.9214968, "tags": {"addr:city": "\ub9c8\ud3ec\uad6c", "addr:housenumber": "3-7", "addr:province": "\uc11c\uc6b8\ud2b9\ubcc4\uc2dc", "addr:street": "\ub3c5\ub9c9\ub85c15\uae38", "addr:unit": "\uc774\ud604S 2\uce35", "name": "\ube44\ub3c4\ud2b8(b.)", "shop": "hairdresser"}}, {"type": "node", "id": 13851201209, "lat": 37.5480686, "lon": 126.9215109, "tags": {"addr:city": "\ub9c8\ud3ec\uad6c", "addr:housenumber": "49-15", "addr:province": "\uc11c\uc6b8\ud2b9\ubcc4\uc2dc", "addr:street": "\uc640\uc6b0\uc0b0\ub85c13\uae38", "addr:unit": "2\uce35 202\ud638", "name": "\ub124\uc77c \ud574\ube0c\ud53c\ud53c(Nail Have PP)", "shop": "hairdresser"}}, {"type": "node", "id": 13851201218, "lat": 37.5485366, "lon": 126.9224322, "tags": {"addr:city": "\ub9c8\ud3ec\uad6c", "addr:housenumber": "9-9", "addr:province": "\uc11c\uc6b8\ud2b9\ubcc4\uc2dc", "addr:street": "\uc640\uc6b0\uc0b0\ub85c11\uae38", "addr:unit": "3\uce35", "name": "\ubaa8\uc988(MOZ)", "shop": "hairdresser"}}, {"type": "node", "id": 13851201268, "lat": 37.5486087, "lon": 126.9224425, "tags": {"addr:city": "\ub9c8\ud3ec\uad6c", "addr:housenumber": "9-7", "addr:province": "\uc11c\uc6b8\ud2b9\ubcc4\uc2dc", "addr:street": "\uc640\uc6b0\uc0b0\ub85c11\uae38", "addr:unit": "4\uce35", "name": "\uc624\uacf5\uc721\ub124\uc77c \ub8f8(506nail room)", "shop": "hairdresser"}}, {"type": "node", "id": 13851201272, "lat": 37.5479758, "lon": 126.9231871, "tags": {"addr:city": "\ub9c8\ud3ec\uad6c", "addr:housenumber": "40", "addr:province": "\uc11c\uc6b8\ud2b9\ubcc4\uc2dc", "addr:street": "\uc640\uc6b0\uc0b0\ub85c", "addr:unit": "\ucc3d\uc601\ube4c\ub529 2\uce35", "name": "\uc5d0\uc774\ubc14\ud5e4\uc5b4 \ud64d\ub300\uc0c1\uc218\uc5ed\uc810", "shop": "hairdresser"}}, {"type": "node", "id": 13851201326, "lat": 37.5473179, "lon": 126.923174, "tags": {"addr:city": "\ub9c8\ud3ec\uad6c", "addr:housenumber": "32", "addr:province": "\uc11c\uc6b8\ud2b9\ubcc4\uc2dc", "addr:street": "\uc640\uc6b0\uc0b0\ub85c", "addr:unit": "1\uce35", "name": "\ub3c4\ub85c\uc2dc", "shop": "hairdresser"}}, {"type": "node", "id": 13851201371, "lat": 37.5495048, "lon": 126.9228822, "tags": {"addr:city": "\ub9c8\ud3ec\uad6c", "addr:housenumber": "55-1", "addr:province": "\uc11c\uc6b8\ud2b9\ubcc4\uc2dc", "addr:street": "\uc640\uc6b0\uc0b0\ub85c", "addr:unit": "1\uce35", "name": "\uc608\uc058\ub2e4 \uadf8 \uc190", "shop": "hairdresser"}}, {"type": "node", "id": 13851201378, "lat": 37.5482256, "lon": 126.9209428, "tags": {"addr:city": "\ub9c8\ud3ec\uad6c", "addr:housenumber": "67-8", "addr:province": "\uc11c\uc6b8\ud2b9\ubcc4\uc2dc", "addr:street": "\ub3c5\ub9c9\ub85c", "addr:unit": "3\uce35", "name": "\ube44\uc5d0\uc774\ud5e4\uc5b4", "shop": "hairdresser"}}, {"type": "node", "id": 13851201555, "lat": 37.5483586, "lon": 126.9226724, "tags": {"addr:city": "\ub9c8\ud3ec\uad6c", "addr:housenumber": "43-5", "addr:province": "\uc11c\uc6b8\ud2b9\ubcc4\uc2dc", "addr:street": "\uc640\uc6b0\uc0b0\ub85c", "name": "\uc0e4\ubbf8\uc988", "shop": "hairdresser"}}, {"type": "node", "id": 13851201591, "lat": 37.5485803, "lon": 126.9222844, "tags": {"addr:city": "\ub9c8\ud3ec\uad6c", "addr:housenumber": "9-8", "addr:province": "\uc11c\uc6b8\ud2b9\ubcc4\uc2dc", "addr:street": "\uc640\uc6b0\uc0b0\ub85c11\uae38", "addr:unit": "3\uce35", "name": "\ubbf8\ub2c8\uc0f5 \ubd99\uc784\uba38\ub9ac", "shop": "hairdresser"}}, {"type": "node", "id": 13851201647, "lat": 37.5481887, "lon": 126.9218374, "tags": {"addr:city": "\ub9c8\ud3ec\uad6c", "addr:housenumber": "5", "addr:province": "\uc11c\uc6b8\ud2b9\ubcc4\uc2dc", "addr:street": "\ub3c5\ub9c9\ub85c15\uae38", "addr:unit": "2\uce35 201\ud638", "name": "\ucd08\uc774\uc2a4\uc0b4\ub871", "shop": "hairdresser"}}, {"type": "node", "id": 13851201651, "lat": 37.5483664, "lon": 126.9205674, "tags": {"addr:city": "\ub9c8\ud3ec\uad6c", "addr:housenumber": "67-13", "addr:province": "\uc11c\uc6b8\ud2b9\ubcc4\uc2dc", "addr:street": "\ub3c5\ub9c9\ub85c", "addr:unit": "5\uce35", "name": "\uc544\ubaa8\ubaa8", "shop": "hairdresser"}}, {"type": "node", "id": 13851201653, "lat": 37.5492198, "lon": 126.9222639, "tags": {"addr:city": "\ub9c8\ud3ec\uad6c", "addr:housenumber": "51-23", "addr:province": "\uc11c\uc6b8\ud2b9\ubcc4\uc2dc", "addr:street": "\uc640\uc6b0\uc0b0\ub85c", "name": "\ubd09\ubd09\ud5e4\uc5b4\uc0b4\ub871", "shop": "hairdresser"}}, {"type": "node", "id": 13851201722, "lat": 37.5470212, "lon": 126.9232461, "tags": {"addr:city": "\ub9c8\ud3ec\uad6c", "addr:housenumber": "92-15", "addr:province": "\uc11c\uc6b8\ud2b9\ubcc4\uc2dc", "addr:street": "\ub3c5\ub9c9\ub85c", "addr:unit": "\uc0bc\uc0bc\uacf5\ube4c\ub529 2\uce35 201", "name": "\ubc14\ub098 \uc0b4\ub871", "shop": "hairdresser"}}, {"type": "node", "id": 13851201761, "lat": 37.5484653, "lon": 126.9215392, "tags": {"addr:city": "\ub9c8\ud3ec\uad6c", "addr:housenumber": "3-12", "addr:province": "\uc11c\uc6b8\ud2b9\ubcc4\uc2dc", "addr:street": "\ub3c5\ub9c9\ub85c15\uae38", "addr:unit": "201\ud638", "name": "\uc5b4\uc3d8(ASOOO)", "shop": "hairdresser"}}, {"type": "node", "id": 13851201767, "lat": 37.5488446, "lon": 126.9236047, "tags": {"addr:city": "\ub9c8\ud3ec\uad6c", "addr:housenumber": "45-5", "addr:province": "\uc11c\uc6b8\ud2b9\ubcc4\uc2dc", "addr:street": "\ub3c5\ub9c9\ub85c19\uae38", "addr:unit": "1\uce35", "name": "\ud64d\ub300\uc9c4\uc544 \ubbf8\uc6a9\uc2e4", "shop": "hairdresser"}}, {"type": "node", "id": 13851201774, "lat": 37.5470212, "lon": 126.9232461, "tags": {"addr:city": "\ub9c8\ud3ec\uad6c", "addr:housenumber": "92-15", "addr:province": "\uc11c\uc6b8\ud2b9\ubcc4\uc2dc", "addr:street": "\ub3c5\ub9c9\ub85c", "addr:unit": "\uc0bc\uc0bc\uacf5\ube4c\ub529 1\uce35 \uc77c\ubd80\ud638", "name": "\ud558\uc6cc\ub4dc\ube4c\ub4dc(Haward Build)", "shop": "hairdresser"}}, {"type": "node", "id": 13851201789, "lat": 37.5481325, "lon": 126.9225851, "tags": {"addr:city": "\ub9c8\ud3ec\uad6c", "addr:housenumber": "39-6", "addr:province": "\uc11c\uc6b8\ud2b9\ubcc4\uc2dc", "addr:street": "\uc640\uc6b0\uc0b0\ub85c", "addr:unit": "2\uce35", "name": "\ud2b8\ub77c\uc6c0(T.raum)", "shop": "hairdresser"}}, {"type": "node", "id": 13851201792, "lat": 37.5480846, "lon": 126.9222689, "tags": {"addr:city": "\ub9c8\ud3ec\uad6c", "addr:housenumber": "39-13", "addr:province": "\uc11c\uc6b8\ud2b9\ubcc4\uc2dc", "addr:street": "\uc640\uc6b0\uc0b0\ub85c", "addr:unit": "\uc9c0\uce35", "name": "\ub098\ub450\ub124\uc77c(nadoo nail)", "shop": "hairdresser"}}, {"type": "node", "id": 13851201814, "lat": 37.5473179, "lon": 126.923174, "tags": {"addr:city": "\ub9c8\ud3ec\uad6c", "addr:housenumber": "32", "addr:province": "\uc11c\uc6b8\ud2b9\ubcc4\uc2dc", "addr:street": "\uc640\uc6b0\uc0b0\ub85c", "addr:unit": "1\uce35", "name": "\uc0c1\uc218\ub124\uc77c", "shop": "hairdresser"}}, {"type": "node", "id": 13851201821, "lat": 37.5481059, "lon": 126.9216462, "tags": {"addr:city": "\ub9c8\ud3ec\uad6c", "addr:housenumber": "3-3", "addr:province": "\uc11c\uc6b8\ud2b9\ubcc4\uc2dc", "addr:street": "\ub3c5\ub9c9\ub85c15\uae38", "addr:unit": "\uc9c0\ud558\uce35 b02\ud638", "name": "\ub108\uae43\ub124\uc77c", "shop": "hairdresser"}}, {"type": "node", "id": 13851201836, "lat": 37.5490198, "lon": 126.9240435, "tags": {"addr:city": "\ub9c8\ud3ec\uad6c", "addr:housenumber": "40", "addr:province": "\uc11c\uc6b8\ud2b9\ubcc4\uc2dc", "addr:street": "\ub3c5\ub9c9\ub85c19\uae38", "addr:unit": "\uc0c1\uc218\ub77c\uc774\ud06c3 5\uce35 501\ud638", "name": "\ud558\ud2f0\uc0b4\ub871", "shop": "hairdresser"}}, {"type": "node", "id": 13851201839, "lat": 37.5483239, "lon": 126.9208509, "tags": {"addr:city": "\ub9c8\ud3ec\uad6c", "addr:housenumber": "67-10", "addr:province": "\uc11c\uc6b8\ud2b9\ubcc4\uc2dc", "addr:street": "\ub3c5\ub9c9\ub85c", "addr:unit": "3\uce35", "name": "\ube44 \ubc14\uc774 \uc5d0\uc774\uce58(B by H)", "shop": "hairdresser"}}, {"type": "node", "id": 13851201854, "lat": 37.5480668, "lon": 126.9252681, "tags": {"addr:city": "\ub9c8\ud3ec\uad6c", "addr:housenumber": "7", "addr:province": "\uc11c\uc6b8\ud2b9\ubcc4\uc2dc", "addr:street": "\ub3c5\ub9c9\ub85c19\uae38", "addr:unit": "\ud64d\ud604\ube4c\ub529 3\uce35", "name": "\uc720\ub2c8\ud06c \ud37c\ud54f", "shop": "hairdresser"}}, {"type": "node", "id": 13851201892, "lat": 37.5482129, "lon": 126.9225047, "tags": {"addr:city": "\ub9c8\ud3ec\uad6c", "addr:housenumber": "39-12", "addr:province": "\uc11c\uc6b8\ud2b9\ubcc4\uc2dc", "addr:street": "\uc640\uc6b0\uc0b0\ub85c", "addr:unit": "3\uce35", "name": "\ub9d0\ub054\uc641\uc2f1", "shop": "hairdresser"}}, {"type": "node", "id": 13851201922, "lat": 37.5482719, "lon": 126.9220625, "tags": {"addr:city": "\ub9c8\ud3ec\uad6c", "addr:housenumber": "9", "addr:province": "\uc11c\uc6b8\ud2b9\ubcc4\uc2dc", "addr:street": "\ub3c5\ub9c9\ub85c15\uae38", "addr:unit": "3\uce35", "name": "\ubcf8\uc0b4\ub871(BON SALON)", "shop": "hairdresser"}}, {"type": "node", "id": 13851201930, "lat": 37.5481059, "lon": 126.9216462, "tags": {"addr:city": "\ub9c8\ud3ec\uad6c", "addr:housenumber": "3-3", "addr:province": "\uc11c\uc6b8\ud2b9\ubcc4\uc2dc", "addr:street": "\ub3c5\ub9c9\ub85c15\uae38", "addr:unit": "101\ud638", "name": "Bello hair", "shop": "hairdresser"}}, {"type": "node", "id": 13851202013, "lat": 37.5483273, "lon": 126.9231934, "tags": {"addr:city": "\ub9c8\ud3ec\uad6c", "addr:housenumber": "44", "addr:province": "\uc11c\uc6b8\ud2b9\ubcc4\uc2dc", "addr:street": "\uc640\uc6b0\uc0b0\ub85c", "addr:unit": "2\uce35", "name": "\uace0\uace0\uc5d0\ucf54", "shop": "hairdresser"}}, {"type": "node", "id": 13851202082, "lat": 37.5494064, "lon": 126.9239474, "tags": {"addr:city": "\ub9c8\ud3ec\uad6c", "addr:housenumber": "42-12", "addr:province": "\uc11c\uc6b8\ud2b9\ubcc4\uc2dc", "addr:street": "\ub3c5\ub9c9\ub85c19\uae38", "addr:unit": "1\uce35 201\ud638", "name": "\ud5e4\uc5b4 \uc0ac\ud30c\ub9ac", "shop": "hairdresser"}}, {"type": "node", "id": 13851202147, "lat": 37.5490501, "lon": 126.9224248, "tags": {"addr:city": "\ub9c8\ud3ec\uad6c", "addr:housenumber": "10", "addr:province": "\uc11c\uc6b8\ud2b9\ubcc4\uc2dc", "addr:street": "\uc640\uc6b0\uc0b0\ub85c11\uae38", "addr:unit": "1\uce35", "name": "\uc774\ubc1c\uc0ac \uc5b8\ub2c8", "shop": "hairdresser"}}, {"type": "node", "id": 13851202151, "lat": 37.5487436, "lon": 126.921422, "tags": {"addr:city": "\ub9c8\ud3ec\uad6c", "addr:housenumber": "28", "addr:province": "\uc11c\uc6b8\ud2b9\ubcc4\uc2dc", "addr:street": "\uc640\uc6b0\uc0b0\ub85c11\uae38", "addr:unit": "2\uce35 201\ud638", "name": "\uc0b4\ub871 \ub4dc \uc0e4\ub9b0", "shop": "hairdresser"}}, {"type": "node", "id": 13851202170, "lat": 37.5474129, "lon": 126.9237045, "tags": {"addr:city": "\ub9c8\ud3ec\uad6c", "addr:housenumber": "92-3", "addr:province": "\uc11c\uc6b8\ud2b9\ubcc4\uc2dc", "addr:street": "\ub3c5\ub9c9\ub85c", "addr:unit": "\ud0dc\uc6d0\ube4c\ub529 1\uce35", "name": "\ud0d0\ub2c9(TAMNIK)", "shop": "hairdresser"}}, {"type": "node", "id": 13851202175, "lat": 37.5481059, "lon": 126.9216462, "tags": {"addr:city": "\ub9c8\ud3ec\uad6c", "addr:housenumber": "3-3", "addr:province": "\uc11c\uc6b8\ud2b9\ubcc4\uc2dc", "addr:street": "\ub3c5\ub9c9\ub85c15\uae38", "addr:unit": "202\ud638", "name": "\uc544\ub9ac \uba54\uc774\ud06c\uc5c5", "shop": "hairdresser"}}, {"type": "node", "id": 13851202237, "lat": 37.5487595, "lon": 126.92218, "tags": {"addr:city": "\ub9c8\ud3ec\uad6c", "addr:housenumber": "24", "addr:province": "\uc11c\uc6b8\ud2b9\ubcc4\uc2dc", "addr:street": "\ub3c5\ub9c9\ub85c15\uae38", "addr:unit": "2~3\uce35 201\ud638~301\ud638", "name": "\ub9ac\ud30c\uc774\ub108\ub9ac", "shop": "hairdresser"}}, {"type": "node", "id": 13851202273, "lat": 37.5484235, "lon": 126.9248556, "tags": {"addr:city": "\ub9c8\ud3ec\uad6c", "addr:housenumber": "19", "addr:province": "\uc11c\uc6b8\ud2b9\ubcc4\uc2dc", "addr:street": "\ub3c5\ub9c9\ub85c19\uae38", "addr:unit": "\uc11c\uad81\ube4c\ub529 2\uce35", "name": "\ud50c\ub808\ub974\ud558\uc6b0\uc2a4(Plaire Haus)", "shop": "hairdresser"}}, {"type": "node", "id": 13851202286, "lat": 37.5483239, "lon": 126.9208509, "tags": {"addr:city": "\ub9c8\ud3ec\uad6c", "addr:housenumber": "67-10", "addr:province": "\uc11c\uc6b8\ud2b9\ubcc4\uc2dc", "addr:street": "\ub3c5\ub9c9\ub85c", "addr:unit": "2\uce35", "name": "\ud638\ubbf8\ubc29", "shop": "hairdresser"}}, {"type": "node", "id": 13851202306, "lat": 37.5475092, "lon": 126.9233976, "tags": {"addr:city": "\ub9c8\ud3ec\uad6c", "addr:housenumber": "90", "addr:province": "\uc11c\uc6b8\ud2b9\ubcc4\uc2dc", "addr:street": "\ub3c5\ub9c9\ub85c", "addr:unit": "\uade0\ube4c\ub529 2\uce35", "name": "\ud504\ub86c\uc5d0\uc774 \ud569\uc815\uc0c1\uc218\uc810", "shop": "hairdresser"}}, {"type": "node", "id": 13851202311, "lat": 37.5481887, "lon": 126.9218374, "tags": {"addr:city": "\ub9c8\ud3ec\uad6c", "addr:housenumber": "5", "addr:province": "\uc11c\uc6b8\ud2b9\ubcc4\uc2dc", "addr:street": "\ub3c5\ub9c9\ub85c15\uae38", "addr:unit": "2\uce35 202\ud638", "name": "\uc544\ub974\ub204\ubcf4 \uba54\uc774\ud06c\uc5c5(Art Nouveau makeup)", "shop": "hairdresser"}}, {"type": "node", "id": 13851202321, "lat": 37.5484225, "lon": 126.9217774, "tags": {"addr:city": "\ub9c8\ud3ec\uad6c", "addr:housenumber": "13-6", "addr:province": "\uc11c\uc6b8\ud2b9\ubcc4\uc2dc", "addr:street": "\ub3c5\ub9c9\ub85c15\uae38", "addr:unit": "2\uce35", "name": "\ubba4\ud2b8\ubaa8\ub4dc(MUTEMODE)", "shop": "hairdresser"}}, {"type": "node", "id": 13851202395, "lat": 37.5490457, "lon": 126.9239187, "tags": {"addr:city": "\ub9c8\ud3ec\uad6c", "addr:housenumber": "42", "addr:province": "\uc11c\uc6b8\ud2b9\ubcc4\uc2dc", "addr:street": "\ub3c5\ub9c9\ub85c19\uae38", "addr:unit": "4\uce35", "name": "\ubbf8\ub124(meene)", "shop": "hairdresser"}}, {"type": "node", "id": 13851202429, "lat": 37.5475736, "lon": 126.9215747, "tags": {"addr:city": "\ub9c8\ud3ec\uad6c", "addr:housenumber": "11", "addr:province": "\uc11c\uc6b8\ud2b9\ubcc4\uc2dc", "addr:street": "\ub3c5\ub9c9\ub85c14\uae38", "addr:unit": "1\uce35", "name": "\ub204\uc5d0\ubcf4", "shop": "hairdresser"}}, {"type": "node", "id": 13851202432, "lat": 37.5487351, "lon": 126.9224633, "tags": {"addr:city": "\ub9c8\ud3ec\uad6c", "addr:housenumber": "9-3", "addr:province": "\uc11c\uc6b8\ud2b9\ubcc4\uc2dc", "addr:street": "\uc640\uc6b0\uc0b0\ub85c11\uae38", "addr:unit": "101\ud638", "name": "\ubc14\ube44\uc5d8\ub974(barbieelle)", "shop": "hairdresser"}}, {"type": "node", "id": 13851202446, "lat": 37.5503247, "lon": 126.9238663, "tags": {"addr:city": "\ub9c8\ud3ec\uad6c", "addr:housenumber": "16", "addr:province": "\uc11c\uc6b8\ud2b9\ubcc4\uc2dc", "addr:street": "\uc640\uc6b0\uc0b0\ub85c14\uae38", "addr:unit": "\uc9c0\uce35 1\ud638", "name": "\ud0c0\uc774\ub514 \uc641\uc2f1&\uc2a4\ud0a8", "shop": "hairdresser"}}, {"type": "node", "id": 13851202457, "lat": 37.5469092, "lon": 126.9228177, "tags": {"addr:city": "\ub9c8\ud3ec\uad6c", "addr:housenumber": "27", "addr:province": "\uc11c\uc6b8\ud2b9\ubcc4\uc2dc", "addr:street": "\uc640\uc6b0\uc0b0\ub85c", "addr:unit": "2\uce35", "name": "\uc624\ube14\ub9ac\uc8fc", "shop": "hairdresser"}}, {"type": "node", "id": 13851202489, "lat": 37.5488341, "lon": 126.9224505, "tags": {"addr:city": "\ub9c8\ud3ec\uad6c", "addr:housenumber": "9", "addr:province": "\uc11c\uc6b8\ud2b9\ubcc4\uc2dc", "addr:street": "\uc640\uc6b0\uc0b0\ub85c11\uae38", "addr:unit": "3\uce35", "name": "\uc624\ubf50\uc5d0\uc2a4\ud14c\ud2f1(OPOMME aesthetic)", "shop": "hairdresser"}}, {"type": "node", "id": 13851202527, "lat": 37.5482745, "lon": 126.9253104, "tags": {"addr:city": "\ub9c8\ud3ec\uad6c", "addr:housenumber": "12", "addr:province": "\uc11c\uc6b8\ud2b9\ubcc4\uc2dc", "addr:street": "\ub3c5\ub9c9\ub85c19\uae38", "addr:unit": "2\uce35", "name": "\uc5b4\ub098\ub354\uc988(AnotherZ)", "shop": "hairdresser"}}, {"type": "node", "id": 13851202564, "lat": 37.5483706, "lon": 126.9220158, "tags": {"addr:city": "\ub9c8\ud3ec\uad6c", "addr:housenumber": "13", "addr:province": "\uc11c\uc6b8\ud2b9\ubcc4\uc2dc", "addr:street": "\ub3c5\ub9c9\ub85c15\uae38", "addr:unit": "311-7\ube4c\ub529 2\uce35", "name": "\uc624\uc544\ud5e4\uc5b4\uc0b4\ub871(O:Ah hair salon)", "shop": "hairdresser"}}, {"type": "node", "id": 13851202597, "lat": 37.5484653, "lon": 126.9215392, "tags": {"addr:city": "\ub9c8\ud3ec\uad6c", "addr:housenumber": "3-12", "addr:province": "\uc11c\uc6b8\ud2b9\ubcc4\uc2dc", "addr:street": "\ub3c5\ub9c9\ub85c15\uae38", "addr:unit": "504\ud638", "name": "of eye(\uc624\ube0c\uc544\uc774)", "shop": "hairdresser"}}, {"type": "node", "id": 13851202620, "lat": 37.5480025, "lon": 126.9211724, "tags": {"addr:city": "\ub9c8\ud3ec\uad6c", "addr:housenumber": "69", "addr:province": "\uc11c\uc6b8\ud2b9\ubcc4\uc2dc", "addr:street": "\ub3c5\ub9c9\ub85c", "addr:unit": "3\uce35", "name": "\ub77c\ubdf0\ub79c(\ub77c\ub77c\ubdf0\ud2f0\ub79c\ub4dc)", "shop": "hairdresser"}}, {"type": "way", "id": 358744655, "nodes": [3636228303, 3636228304, 3636228305, 3636228306, 3636228307, 3636228308, 3636228309, 3636228310, 3636228303], "tags": {"amenity": "restaurant", "building": "commercial", "building:levels": "1\uce35"}}, {"type": "way", "id": 358755564, "nodes": [3636284409, 3636284410, 3636284411, 3636284412, 3636284413, 3636284414, 3636284409], "tags": {"addr:city": "\uc11c\uc6b8\ud2b9\ubcc4\uc2dc", "addr:district": "\ub9c8\ud3ec\uad6c", "addr:housenumber": "9", "addr:postcode": "04049", "addr:street": "\ub3c5\ub9c9\ub85c15\uae38", "addr:subdistrict": "\uc0c1\uc218\ub3d9", "amenity": "fast_food", "brand": "Subway", "brand:wikidata": "Q244457", "building": "yes", "building:levels": "2", "cuisine": "sandwich", "delivery": "yes", "name": "Subway", "opening_hours": "08:00-22:00", "smoking": "no", "takeaway": "yes", "website": "https://www.subway.com"}}, {"type": "way", "id": 600087107, "nodes": [5707433570, 5707433571, 5707433572, 5707433573, 5707433574, 5707433570], "tags": {"addr:city": "\uc11c\uc6b8\ud2b9\ubcc4\uc2dc", "addr:district": "\ub9c8\ud3ec\uad6c", "addr:housenumber": "24", "addr:postcode": "04075", "addr:street": "\uc640\uc6b0\uc0b0\ub85c", "addr:subdistrict": "\uc0c1\uc218\ub3d9", "amenity": "cafe", "building": "yes", "check_date": "2025-08-28", "internet_access": "wlan", "name": "\uc81c\ube44\ub2e4\ubc29", "opening_hours": "10:00-02:00", "outdoor_seating": "yes", "smoking": "outside"}}]}